$GNTXT,01,01,02,u-blox AG - www.u-blox.com*4E
$GNTXT,01,01,02,HW UBX-M80xx 00080000 *43
$GNTXT,01,01,02,EXT CORE 2.01 (75350) Oct 29 2013 16:15:41*5C
$GNTXT,01,01,02,ROM BASE 2.01 (75331) Oct 29 2013 13:28:17*44
$GNTXT,01,01,02,PROTVER 15.00*01
$GNTXT,01,01,02,GNSS OTP:  GPS GLO, SEL:  GPS GLO*67
$GNTXT,01,01,02,ANTSUPERV=AC SD PDoS SR*3E
$GNTXT,01,01,02,ANTSTATUS=DONTKNOW*2D
$GNTXT,01,01,02,FIS 0xEF4015 (79189) found*2D
$GNTXT,01,01,02,LLC FFFFFFFF-FFFFFFED-FFFFFFFF-FFFFFFFF-FFFFFF69*3E
$GNTXT,01,01,02,RF0 dev ok*04
$GNRMC,,V,,,,,,,,,,N*4D
$GNVTG,,,,,,,,,N*2E
$GNGGA,,,,,,0,00,99.99,,,,,,*56
$GNGSA,A,1,,,,,,,,,,,,,99.99,99.99,99.99*2E
$GNGSA,A,1,,,,,,,,,,,,,99.99,99.99,99.99*2E
$GPGSV,1,1,00*79
$GLGSV,1,1,00*65
$GNGLL,,,,,,V,N*7A
$GNTXT,01,01,02,ANTSTATUS=INIT*3B
$GNRMC,,V,,,,,,,,,,N*4D
$GNVTG,,,,,,,,,N*2E
$GNGGA,,,,,,0,00,99.99,,,,,,*56
$GNGSA,A,1,,,,,,,,,,,,,99.99,99.99,99.99*2E
$GNGSA,A,1,,,,,,,,,,,,,99.99,99.99,99.99*2E
$GPGSV,2,1,07,02,,,46,06,,,45,12,,,45,17,,,46*7C
$GPGSV,2,2,07,19,,,42,24,,,41,46,,,44*71
$GLGSV,1,1,00*65
$GNGLL,,,,,,V,N*7A
$GNTXT,01,01,02,ANTSTATUS=OK*25
$GNRMC,,V,,,,,,,,,,N*4D
$GNVTG,,,,,,,,,N*2E
$GNGGA,,,,,,0,00,99.99,,,,,,*56
$GNGSA,A,1,,,,,,,,,,,,,99.99,99.99,99.99*2E
$GNGSA,A,1,,,,,,,,,,,,,99.99,99.99,99.99*2E
$GPGSV,2,1,07,02,,,46,06,,,45,12,,,45,17,,,46*7C
$GPGSV,2,2,07,19,,,43,24,,,41,46,,,44*70
$GLGSV,1,1,01,,,,43*63
$GNGLL,,,,,,V,N*7A
$GNRMC,,V,,,,,,,,,,N*4D
$GNVTG,,,,,,,,,N*2E
$GNGGA,,,,,,0,00,99.99,,,,,,*56
$GNGSA,A,1,,,,,,,,,,,,,99.99,99.99,99.99*2E
$GNGSA,A,1,,,,,,,,,,,,,99.99,99.99,99.99*2E
$GPGSV,3,1,10,02,,,45,04,,,39,05,,,38,06,,,45*7E
$GPGSV,3,2,10,12,,,44,17,,,45,19,,,42,24,,,41*70
$GPGSV,3,3,10,28,,,38,46,,,43*7C
$GLGSV,1,1,01,,,,43*63
$GNGLL,,,,,,V,N*7A
$GNRMC,,V,,,,,,,,,,N*4D
$GNVTG,,,,,,,,,N*2E
$GNGGA,,,,,,0,00,99.99,,,,,,*56
$GNGSA,A,1,,,,,,,,,,,,,99.99,99.99,99.99*2E
$GNGSA,A,1,,,,,,,,,,,,,99.99,99.99,99.99*2E
$GPGSV,3,1,11,02,,,45,03,,,36,04,,,39,05,,,38*7E
$GPGSV,3,2,11,06,,,45,12,,,44,17,,,45,19,,,42*75
$GPGSV,3,3,11,24,,,41,28,,,38,46,,,43*7E
$GLGSV,2,1,05,,,,43,,,,47,,,,39,,,,39*67
$GLGSV,2,2,05,,,,43*67
$GNGLL,,,,,,V,N*7A
$GNRMC,,V,,,,,,,,,,N*4D
$GNVTG,,,,,,,,,N*2E
$GNGGA,,,,,,0,00,99.99,,,,,,*56
$GNGSA,A,1,,,,,,,,,,,,,99.99,99.99,99.99*2E
$GNGSA,A,1,,,,,,,,,,,,,99.99,99.99,99.99*2E
$GPGSV,3,1,11,02,,,45,03,,,37,04,,,39,05,,,39*7E
$GPGSV,3,2,11,06,,,45,12,,,44,17,,,45,19,,,42*75
$GPGSV,3,3,11,24,,,41,28,,,38,46,,,43*7E
$GLGSV,2,1,05,,,,42,,,,47,,,,40,,,,39*68
$GLGSV,2,2,05,,,,42*66
$GNGLL,,,,,,V,N*7A
$GNRMC,,V,,,,,,,,,,N*4D
$GNVTG,,,,,,,,,N*2E
$GNGGA,,,,,,0,00,99.99,,,,,,*56
$GNGSA,A,1,,,,,,,,,,,,,99.99,99.99,99.99*2E
$GNGSA,A,1,,,,,,,,,,,,,99.99,99.99,99.99*2E
$GPGSV,3,1,11,02,,,45,03,,,37,04,,,39,05,,,39*7E
$GPGSV,3,2,11,06,,,45,12,,,44,17,,,46,19,,,42*76
$GPGSV,3,3,11,24,,,40,28,,,38,46,,,43*7F
$GLGSV,2,1,05,,,,43,,,,47,,,,40,,,,39*69
$GLGSV,2,2,05,,,,43*67
$GNGLL,,,,,,V,N*7A
$GNRMC,,V,,,,,,,,,,N*4D
$GNVTG,,,,,,,,,N*2E
$GNGGA,,,,,,0,00,99.99,,,,,,*56
$GNGSA,A,1,,,,,,,,,,,,,99.99,99.99,99.99*2E
$GNGSA,A,1,,,,,,,,,,,,,99.99,99.99,99.99*2E
$GPGSV,3,1,12,02,,,45,03,,,38,04,,,39,05,,,39*72
$GPGSV,3,2,12,06,,,45,12,,,45,17,,,46,19,,,42*74
$GPGSV,3,3,12,24,,,40,28,,,38,46,,,43,51,,,33*78
$GLGSV,2,1,05,,,,43,,,,47,,,,41,,,,40*66
$GLGSV,2,2,05,,,,43*67
$GNGLL,,,,,,V,N*7A
$GNRMC,164955.00,V,,,,,,,,,,N*69
$GNVTG,,,,,,,,,N*2E
$GNGGA,164955.00,,,,,0,00,99.99,,,,,,*72
$GNGSA,A,1,,,,,,,,,,,,,99.99,99.99,99.99*2E
$GNGSA,A,1,,,,,,,,,,,,,99.99,99.99,99.99*2E
$GPGSV,3,1,12,02,,,45,03,,,37,04,,,39,05,,,39*7D
$GPGSV,3,2,12,06,,,45,12,,,45,17,,,46,19,,,42*74
$GPGSV,3,3,12,24,,,40,28,,,38,46,,,43,51,,,34*7F
$GLGSV,2,1,05,,,,43,,,,47,,,,40,,,,39*69
$GLGSV,2,2,05,,,,43*67
$GNGLL,,,,,164955.00,V,N*5E
$GNRMC,164956.00,V,,,,,,,,,,N*6A
$GNVTG,,,,,,,,,N*2E
$GNGGA,164956.00,,,,,0,00,99.99,,,,,,*71
$GNGSA,A,1,,,,,,,,,,,,,99.99,99.99,99.99*2E
$GNGSA,A,1,,,,,,,,,,,,,99.99,99.99,99.99*2E
$GPGSV,3,1,12,02,,,45,03,,,38,04,,,39,05,,,39*72
$GPGSV,3,2,12,06,,,45,12,,,45,17,,,46,19,,,42*74
$GPGSV,3,3,12,24,,,40,28,,,38,46,,,44,51,,,35*79
$GLGSV,2,1,05,,,,43,,,,47,,,,41,,,,39*68
$GLGSV,2,2,05,,,,43*67
$GNGLL,,,,,164956.00,V,N*5D
$GNRMC,164957.00,V,,,,,,,,,,N*6B
$GNVTG,,,,,,,,,N*2E
$GNGGA,164957.00,,,,,0,00,99.99,,,,,,*70
$GNGSA,A,1,,,,,,,,,,,,,99.99,99.99,99.99*2E
$GNGSA,A,1,,,,,,,,,,,,,99.99,99.99,99.99*2E
$GPGSV,3,1,12,02,,,46,03,,,37,04,,,40,05,,,39*70
$GPGSV,3,2,12,06,,,45,12,,,45,17,,,46,19,,,42*74
$GPGSV,3,3,12,24,,,40,28,,,38,46,,,43,51,,,35*7E
$GLGSV,2,1,05,,,,43,,,,47,,,,41,,,,39*68
$GLGSV,2,2,05,,,,43*67
$GNGLL,,,,,164957.00,V,N*5C
$GNRMC,164958.00,V,,,,,,,,,,N*64
$GNVTG,,,,,,,,,N*2E
$GNGGA,164958.00,,,,,0,00,99.99,,,,,,*7F
$GNGSA,A,1,,,,,,,,,,,,,99.99,99.99,99.99*2E
$GNGSA,A,1,,,,,,,,,,,,,99.99,99.99,99.99*2E
$GPGSV,3,1,12,02,,,46,03,,,37,04,,,40,05,,,39*70
$GPGSV,3,2,12,06,,,45,12,,,45,17,,,46,19,,,42*74
$GPGSV,3,3,12,24,,,40,28,,,38,46,,,43,51,,,35*7E
$GLGSV,2,1,05,,,,43,,,,48,,,,42,,,,40*6A
$GLGSV,2,2,05,,,,43*67
$GNGLL,,,,,164958.00,V,N*53
$GNRMC,164959.00,V,,,,,,,,,,N*65
$GNVTG,,,,,,,,,N*2E
$GNGGA,164959.00,,,,,0,00,99.99,,,,,,*7E
$GNGSA,A,1,,,,,,,,,,,,,99.99,99.99,99.99*2E
$GNGSA,A,1,,,,,,,,,,,,,99.99,99.99,99.99*2E
$GPGSV,3,1,12,02,,,46,03,,,37,04,,,40,05,,,39*70
$GPGSV,3,2,12,06,,,45,12,,,45,17,,,46,19,,,42*74
$GPGSV,3,3,12,24,,,39,28,,,38,46,,,43,51,,,35*70
$GLGSV,2,1,05,,,,43,,,,47,,,,42,,,,40*65
$GLGSV,2,2,05,,,,43*67
$GNGLL,,,,,164959.00,V,N*52
$GNRMC,165000.00,V,,,,,,,,,,N*61
$GNVTG,,,,,,,,,N*2E
$GNGGA,165000.00,,,,,0,00,99.99,,,,,,*7A
$GNGSA,A,1,,,,,,,,,,,,,99.99,99.99,99.99*2E
$GNGSA,A,1,,,,,,,,,,,,,99.99,99.99,99.99*2E
$GPGSV,3,1,12,02,,,46,03,,,37,04,,,40,05,,,39*70
$GPGSV,3,2,12,06,,,45,12,,,45,17,,,46,19,,,42*74
$GPGSV,3,3,12,24,,,39,28,,,38,46,,,43,51,,,35*70
$GLGSV,2,1,05,,,,43,,,,47,,,,42,,,,40*65
$GLGSV,2,2,05,,,,43*67
$GNGLL,,,,,165000.00,V,N*56
$GNRMC,165001.00,V,,,,,,,,,,N*60
$GNVTG,,,,,,,,,N*2E
$GNGGA,165001.00,,,,,0,00,99.99,,,,,,*7B
$GNGSA,A,1,,,,,,,,,,,,,99.99,99.99,99.99*2E
$GNGSA,A,1,,,,,,,,,,,,,99.99,99.99,99.99*2E
$GPGSV,3,1,12,02,,,46,03,,,37,04,,,40,05,,,39*70
$GPGSV,3,2,12,06,,,45,12,,,45,17,,,46,19,,,42*74
$GPGSV,3,3,12,24,,,39,28,,,38,46,,,43,51,,,35*70
$GLGSV,2,1,05,,,,44,,,,47,,,,42,,,,40*62
$GLGSV,2,2,05,,,,44*60
$GNGLL,,,,,165001.00,V,N*57
$GNRMC,165002.00,A,3851.54129,N,07726.28430,W,0.036,,,,,A*74
$GNVTG,,T,,M,0.036,N,0.066,K,A*38
$GNGGA,165002.00,3851.54129,N,07726.28430,W,1,06,2.13,92.5,M,-34.6,M,,*49
$GNGSA,A,3,02,06,12,17,19,24,,,,,,,3.07,2.13,2.21*16
$GNGSA,A,3,,,,,,,,,,,,,3.07,2.13,2.21*19
$GPGSV,3,1,12,02,48,267,46,03,,,37,04,,,40,05,,,39*4F
$GPGSV,3,2,12,06,74,340,45,12,31,313,45,17,51,088,46,19,67,057,42*74
$GPGSV,3,3,12,24,08,264,39,28,,,39,46,,,43,51,,,35*49
$GLGSV,2,1,05,,,,43,,,,47,,,,42,,,,40*65
$GLGSV,2,2,05,,,,43*67
$GNGLL,3851.54129,N,07726.28430,W,165002.00,A,A*68
$GNRMC,165003.00,A,3851.54104,N,07726.28448,W,0.154,,,,,A*70
$GNVTG,,T,,M,0.154,N,0.285,K,A*32
$GNGGA,165003.00,3851.54104,N,07726.28448,W,1,06,2.13,92.7,M,-34.6,M,,*4A
$GNGSA,A,3,02,06,12,17,19,24,,,,,,,3.07,2.13,2.21*16
$GNGSA,A,3,,,,,,,,,,,,,3.07,2.13,2.21*19
$GPGSV,3,1,12,02,48,267,46,03,,,37,04,,,40,05,,,39*4F
$GPGSV,3,2,12,06,74,340,45,12,31,313,45,17,51,088,45,19,67,057,43*76
$GPGSV,3,3,12,24,08,264,39,28,,,38,46,,,43,51,,,35*48
$GLGSV,2,1,05,,,,43,,,,47,,,,42,,,,40*65
$GLGSV,2,2,05,,,,43*67
$GNGLL,3851.54104,N,07726.28448,W,165003.00,A,A*69
$GNRMC,165004.00,A,3851.54102,N,07726.28452,W,0.155,,,,,A*7B
$GNVTG,,T,,M,0.155,N,0.287,K,A*31
$GNGGA,165004.00,3851.54102,N,07726.28452,W,1,06,2.13,92.7,M,-34.6,M,,*40
$GNGSA,A,3,02,06,12,17,19,24,,,,,,,3.07,2.13,2.21*16
$GNGSA,A,3,,,,,,,,,,,,,3.07,2.13,2.21*19
$GPGSV,3,1,12,02,48,267,46,03,,,37,04,,,40,05,,,38*4E
$GPGSV,3,2,12,06,74,340,45,12,31,313,45,17,51,088,45,19,67,057,43*76
$GPGSV,3,3,12,24,08,264,39,28,,,38,46,,,43,51,,,35*48
$GLGSV,2,1,06,,,,43,,,,47,,,,42,,,,40*66
$GLGSV,2,2,06,,,,43,,,,47*67
$GNGLL,3851.54102,N,07726.28452,W,165004.00,A,A*63
$GNRMC,165005.00,A,3851.54098,N,07726.28457,W,0.141,,,,,A*78
$GNVTG,,T,,M,0.141,N,0.261,K,A*3C
$GNGGA,165005.00,3851.54098,N,07726.28457,W,1,06,2.13,92.7,M,-34.6,M,,*46
$GNGSA,A,3,02,06,12,17,19,24,,,,,,,3.07,2.13,2.21*16
$GNGSA,A,3,,,,,,,,,,,,,3.07,2.13,2.21*19
$GPGSV,3,1,12,02,48,267,45,03,,,37,04,,,40,05,,,38*4D
$GPGSV,3,2,12,06,74,340,45,12,31,313,45,17,51,088,45,19,67,057,43*76
$GPGSV,3,3,12,24,08,264,40,28,,,38,46,,,43,51,,,35*46
$GLGSV,2,1,06,,,,43,,,,47,,,,42,,,,40*66
$GLGSV,2,2,06,,,,43,,,,47*67
$GNGLL,3851.54098,N,07726.28457,W,165005.00,A,A*65
$GNRMC,165006.00,A,3851.54095,N,07726.28460,W,0.152,,,,,A*70
$GNVTG,,T,,M,0.152,N,0.281,K,A*30
$GNGGA,165006.00,3851.54095,N,07726.28460,W,1,06,2.13,92.7,M,-34.6,M,,*4C
$GNGSA,A,3,02,06,12,17,19,24,,,,,,,3.07,2.13,2.21*16
$GNGSA,A,3,,,,,,,,,,,,,3.07,2.13,2.21*19
$GPGSV,3,1,12,02,48,267,45,03,,,36,04,,,40,05,,,38*4C
$GPGSV,3,2,12,06,74,340,45,12,31,313,45,17,51,088,45,19,67,057,43*76
$GPGSV,3,3,12,24,08,264,40,28,,,38,46,,,43,51,,,35*46
$GLGSV,2,1,06,,,,43,,,,47,,,,42,,,,40*66
$GLGSV,2,2,06,,,,43,,,,47*67
$GNGLL,3851.54095,N,07726.28460,W,165006.00,A,A*6F
$GNRMC,165007.00,A,3851.54081,N,07726.28474,W,0.127,,,,,A*73
$GNVTG,,T,,M,0.127,N,0.235,K,A*3D
$GNGGA,165007.00,3851.54081,N,07726.28474,W,1,06,2.13,92.9,M,-34.6,M,,*43
$GNGSA,A,3,02,06,12,17,19,24,,,,,,,3.07,2.13,2.21*16
$GNGSA,A,3,,,,,,,,,,,,,3.07,2.13,2.21*19
$GPGSV,3,1,12,02,48,267,45,03,,,37,04,,,40,05,,,39*4C
$GPGSV,3,2,12,06,74,340,45,12,31,313,45,17,51,088,46,19,67,057,43*75
$GPGSV,3,3,12,24,08,264,40,28,,,40,46,,,42,51,,,35*48
$GLGSV,2,1,06,,,,43,,,,47,,,,42,,,,41*67
$GLGSV,2,2,06,,,,43,,,,47*67
$GNGLL,3851.54081,N,07726.28474,W,165007.00,A,A*6E
$GNRMC,165008.00,A,3851.54072,N,07726.28480,W,0.148,,,,,A*72
$GNVTG,,T,,M,0.148,N,0.273,K,A*36
$GNGGA,165008.00,3851.54072,N,07726.28480,W,1,06,2.13,92.9,M,-34.6,M,,*4B
$GNGSA,A,3,02,06,12,17,19,24,,,,,,,3.07,2.13,2.21*16
$GNGSA,A,3,,,,,,,,,,,,,3.07,2.13,2.21*19
$GPGSV,3,1,12,02,48,267,45,03,,,36,04,,,40,05,,,39*4D
$GPGSV,3,2,12,06,74,340,45,12,31,313,45,17,51,088,45,19,67,057,43*76
$GPGSV,3,3,12,24,08,264,40,28,,,39,46,,,43,51,,,35*47
$GLGSV,2,1,06,,,,43,,,,47,,,,42,,,,41*67
$GLGSV,2,2,06,,,,43,,,,47*67
$GNGLL,3851.54072,N,07726.28480,W,165008.00,A,A*66
$GNRMC,165009.00,A,3851.54064,N,07726.28481,W,0.140,,,,,A*7D
$GNVTG,,T,,M,0.140,N,0.260,K,A*3C
$GNGGA,165009.00,3851.54064,N,07726.28481,W,1,06,2.13,92.8,M,-34.6,M,,*4D
$GNGSA,A,3,02,06,12,17,19,24,,,,,,,3.07,2.13,2.21*16
$GNGSA,A,3,,,,,,,,,,,,,3.07,2.13,2.21*19
$GPGSV,3,1,12,02,48,267,45,03,,,36,04,,,40,05,,,39*4D
$GPGSV,3,2,12,06,74,340,44,12,31,313,45,17,51,088,45,19,67,057,43*77
$GPGSV,3,3,12,24,08,264,40,28,,,40,46,,,43,51,,,35*49
$GLGSV,2,1,06,,,,44,,,,47,,,,42,,,,41*60
$GLGSV,2,2,06,,,,44,,,,47*60
$GNGLL,3851.54064,N,07726.28481,W,165009.00,A,A*61
$GNRMC,165010.00,A,3851.54062,N,07726.28475,W,0.040,,,,,A*79
$GNVTG,,T,,M,0.040,N,0.073,K,A*3D
$GNGGA,165010.00,3851.54062,N,07726.28475,W,1,06,2.13,92.5,M,-34.6,M,,*45
$GNGSA,A,3,02,06,12,17,19,24,,,,,,,3.07,2.13,2.21*16
$GNGSA,A,3,,,,,,,,,,,,,3.07,2.13,2.21*19
$GPGSV,3,1,12,02,48,267,45,03,,,36,04,,,40,05,,,39*4D
$GPGSV,3,2,12,06,74,340,44,12,31,313,45,17,51,088,45,19,67,057,43*77
$GPGSV,3,3,12,24,08,264,40,28,,,40,46,,,43,51,,,35*49
$GLGSV,2,1,07,,,,44,,,,47,,,,42,,,,41*61
$GLGSV,2,2,07,,,,44,,,,47,,,,42*67
$GNGLL,3851.54062,N,07726.28475,W,165010.00,A,A*64
$GNRMC,165011.00,A,3851.54055,N,07726.28468,W,0.054,,,,,A*75
$GNVTG,,T,,M,0.054,N,0.100,K,A*3D
$GNGGA,165011.00,3851.54055,N,07726.28468,W,1,06,2.13,92.2,M,-34.6,M,,*4B
$GNGSA,A,3,02,06,12,17,19,24,,,,,,,3.07,2.13,2.21*16
$GNGSA,A,3,,,,,,,,,,,,,3.07,2.13,2.21*19
$GPGSV,3,1,12,02,48,267,45,03,,,36,04,,,40,05,,,39*4D
$GPGSV,3,2,12,06,74,340,44,12,31,313,45,17,51,088,45,19,67,057,43*77
$GPGSV,3,3,12,24,08,264,40,28,,,40,46,,,43,51,,,35*49
$GLGSV,2,1,07,66,,,47,67,,,42,79,,,40,81,,,44*66
$GLGSV,2,2,07,82,,,44,88,,,42,,,,43*69
$GNGLL,3851.54055,N,07726.28468,W,165011.00,A,A*6D
$GNRMC,165012.00,A,3851.54051,N,07726.28459,W,0.026,,,,,A*75
$GNVTG,,T,,M,0.026,N,0.049,K,A*34
$GNGGA,165012.00,3851.54051,N,07726.28459,W,1,06,2.13,91.9,M,-34.6,M,,*46
$GNGSA,A,3,02,06,12,17,19,24,,,,,,,3.07,2.13,2.21*16
$GNGSA,A,3,,,,,,,,,,,,,3.07,2.13,2.21*19
$GPGSV,3,1,12,02,48,267,46,03,,,36,04,,,40,05,,,39*4E
$GPGSV,3,2,12,06,74,340,45,12,31,313,45,17,51,088,45,19,67,057,43*76
$GPGSV,3,3,12,24,08,264,40,28,,,40,46,,,43,51,,,35*49
$GLGSV,2,1,07,66,,,47,67,,,42,79,,,40,81,,,44*66
$GLGSV,2,2,07,82,,,43,88,,,41,,,,42*6C
$GNGLL,3851.54051,N,07726.28459,W,165012.00,A,A*68
$GNRMC,165011.00,A,3851.54067,N,07726.28531,W,0.028,,210720,,,A*74
$GNVTG,,T,,M,0.028,N,0.053,K,A*31
$GNGGA,165011.00,3851.54067,N,07726.28531,W,1,05,1.27,94.0,M,-34.6,M,,*44
$GNGSA,A,3,,,,,,,,,,,,,3.23,1.27,2.97*16
$GNGSA,A,3,82,66,88,67,79,,,,,,,,3.23,1.27,2.97*13
$GPGSV,3,1,12,02,48,267,46,03,,,36,04,,,40,05,,,39*4E
$GPGSV,3,2,12,06,74,340,45,12,31,313,45,17,51,088,45,19,67,058,43*79
$GPGSV,3,3,12,24,08,264,40,28,,,40,46,40,211,43,51,35,222,35*4B
$GLGSV,2,1,07,66,40,095,47,67,19,152,42,79,31,222,39,81,,,44*5E
$GLGSV,2,2,07,82,44,313,43,88,10,075,41,,,,42*6E
$GNGLL,3851.54067,N,07726.28531,W,165011.00,A,A*61
$GNRMC,165012.00,A,3851.54058,N,07726.28552,W,0.049,,210720,,,A*79
$GNVTG,,T,,M,0.049,N,0.091,K,A*38
$GNGGA,165012.00,3851.54058,N,07726.28552,W,1,05,1.27,95.2,M,-34.6,M,,*4D
$GNGSA,A,3,,,,,,,,,,,,,3.23,1.27,2.97*16
$GNGSA,A,3,82,66,88,67,79,,,,,,,,3.23,1.27,2.97*13
$GPGSV,3,1,12,02,48,267,46,03,,,36,04,,,40,05,,,39*4E
$GPGSV,3,2,12,06,74,340,44,12,31,313,45,17,51,088,45,19,67,058,43*78
$GPGSV,3,3,12,24,08,264,40,28,,,40,46,40,211,43,51,35,222,34*4A
$GLGSV,2,1,07,66,40,095,47,67,19,152,43,79,31,222,38,81,,,45*5F
$GLGSV,2,2,07,82,44,313,43,88,10,075,41,,,,42*6E
$GNGLL,3851.54058,N,07726.28552,W,165012.00,A,A*6B
$GNRMC,165013.00,A,3851.54062,N,07726.28565,W,0.057,,210720,,,A*7A
$GNVTG,,T,,M,0.057,N,0.105,K,A*3B
$GNGGA,165013.00,3851.54062,N,07726.28565,W,1,06,1.25,95.8,M,-34.6,M,,*4A
$GNGSA,A,3,06,,,,,,,,,,,,2.44,1.25,2.10*1D
$GNGSA,A,3,82,66,88,67,79,,,,,,,,2.44,1.25,2.10*1E
$GPGSV,3,1,12,02,48,267,46,03,,,36,04,,,40,05,,,39*4E
$GPGSV,3,2,12,06,74,340,44,12,31,313,45,17,51,088,45,19,67,058,42*79
$GPGSV,3,3,12,24,08,264,40,28,,,40,46,40,211,43,51,35,222,35*4B
$GLGSV,2,1,07,66,40,095,46,67,19,152,43,79,31,222,38,81,,,45*5E
$GLGSV,2,2,07,82,44,313,42,88,10,075,41,,,,42*6F
$GNGLL,3851.54062,N,07726.28565,W,165013.00,A,A*67
$GNRMC,165014.00,A,3851.54060,N,07726.28604,W,0.024,,210720,,,A*7F
$GNVTG,,T,,M,0.024,N,0.045,K,A*3A
$GNGGA,165014.00,3851.54060,N,07726.28604,W,1,06,1.25,96.9,M,-34.6,M,,*49
$GNGSA,A,3,06,,,,,,,,,,,,2.44,1.25,2.10*1D
$GNGSA,A,3,82,66,88,67,79,,,,,,,,2.44,1.25,2.10*1E
$GPGSV,3,1,12,02,48,267,45,03,,,36,04,,,40,05,,,39*4D
$GPGSV,3,2,12,06,74,340,43,12,31,313,45,17,51,088,45,19,67,058,42*7E
$GPGSV,3,3,12,24,08,264,40,28,,,40,46,40,211,43,51,35,222,34*4A
$GLGSV,2,1,07,66,40,095,46,67,19,152,43,79,31,222,38,81,,,45*5E
$GLGSV,2,2,07,82,44,313,42,88,10,075,41,,,,42*6F
$GNGLL,3851.54060,N,07726.28604,W,165014.00,A,A*66
$GNRMC,165015.00,A,3851.54057,N,07726.28617,W,0.056,,210720,,,A*7D
$GNVTG,,T,,M,0.056,N,0.103,K,A*3C
$GNGGA,165015.00,3851.54057,N,07726.28617,W,1,06,1.25,97.1,M,-34.6,M,,*47
$GNGSA,A,3,06,,,,,,,,,,,,2.44,1.25,2.10*1D
$GNGSA,A,3,82,66,88,67,79,,,,,,,,2.44,1.25,2.10*1E
$GPGSV,3,1,12,02,48,267,45,03,,,36,04,,,40,05,,,39*4D
$GPGSV,3,2,12,06,74,340,43,12,31,313,45,17,51,088,45,19,67,058,42*7E
$GPGSV,3,3,12,24,08,264,39,28,,,40,46,40,211,43,51,35,222,34*44
$GLGSV,2,1,07,66,40,095,46,67,19,152,43,79,31,222,39,81,,,45*5F
$GLGSV,2,2,07,82,44,313,42,88,10,075,41,,,,41*6C
$GNGLL,3851.54057,N,07726.28617,W,165015.00,A,A*61
$GNRMC,165016.00,A,3851.54069,N,07726.28633,W,0.023,,210720,,,A*77
$GNVTG,,T,,M,0.023,N,0.042,K,A*3A
$GNGGA,165016.00,3851.54069,N,07726.28633,W,1,06,1.25,97.7,M,-34.6,M,,*49
$GNGSA,A,3,06,,,,,,,,,,,,2.44,1.25,2.10*1D
$GNGSA,A,3,82,66,88,67,79,,,,,,,,2.44,1.25,2.10*1E
$GPGSV,3,1,12,02,48,267,45,03,,,36,04,,,40,05,,,38*4C
$GPGSV,3,2,12,06,74,340,43,12,31,313,45,17,51,088,45,19,67,058,42*7E
$GPGSV,3,3,12,24,08,264,39,28,,,40,46,40,211,43,51,35,222,34*44
$GLGSV,2,1,07,66,40,095,46,67,19,152,43,79,31,222,39,81,,,45*5F
$GLGSV,2,2,07,82,44,313,42,88,10,075,42,,,,41*6F
$GNGLL,3851.54069,N,07726.28633,W,165016.00,A,A*69
$GNRMC,165017.00,A,3851.54075,N,07726.28641,W,0.039,,210720,,,A*75
$GNVTG,,T,,M,0.039,N,0.072,K,A*32
$GNGGA,165017.00,3851.54075,N,07726.28641,W,1,06,1.25,97.9,M,-34.6,M,,*4E
$GNGSA,A,3,06,,,,,,,,,,,,2.44,1.25,2.10*1D
$GNGSA,A,3,82,66,88,67,79,,,,,,,,2.44,1.25,2.10*1E
$GPGSV,3,1,12,02,48,267,45,03,,,36,04,,,40,05,,,39*4D
$GPGSV,3,2,12,06,74,340,43,12,31,313,45,17,51,088,46,19,67,058,42*7D
$GPGSV,3,3,12,24,08,264,39,28,,,40,46,40,211,43,51,35,222,34*44
$GLGSV,2,1,07,66,40,095,46,67,19,152,43,79,31,222,38,81,,,45*5E
$GLGSV,2,2,07,82,44,313,42,88,10,075,42,,,,41*6F
$GNGLL,3851.54075,N,07726.28641,W,165017.00,A,A*60
$GNRMC,165018.00,A,3851.54090,N,07726.28630,W,0.037,,210720,,,A*79
$GNVTG,,T,,M,0.037,N,0.069,K,A*36
$GNGGA,165018.00,3851.54090,N,07726.28630,W,1,06,1.25,98.3,M,-34.6,M,,*49
$GNGSA,A,3,06,,,,,,,,,,,,2.44,1.25,2.10*1D
$GNGSA,A,3,82,66,88,67,79,,,,,,,,2.44,1.25,2.10*1E
$GPGSV,3,1,12,02,48,267,45,03,,,36,04,,,40,05,,,39*4D
$GPGSV,3,2,12,06,74,340,43,12,31,313,46,17,51,088,45,19,67,058,42*7D
$GPGSV,3,3,12,24,08,264,39,28,,,40,46,40,211,42,51,35,222,34*45
$GLGSV,2,1,07,66,40,095,46,67,19,152,43,79,31,222,39,81,,,45*5F
$GLGSV,2,2,07,82,44,313,42,88,10,075,42,,,,41*6F
$GNGLL,3851.54090,N,07726.28630,W,165018.00,A,A*62
$GNRMC,165019.00,A,3851.54056,N,07726.28628,W,0.011,,210720,,,A*7F
$GNVTG,,T,,M,0.011,N,0.021,K,A*3E
$GNGGA,165019.00,3851.54056,N,07726.28628,W,1,12,0.65,97.9,M,-34.6,M,,*4E
$GNGSA,A,3,02,06,12,17,19,24,04,05,28,03,,,1.14,0.65,0.93*16
$GNGSA,A,3,82,66,88,67,79,,,,,,,,1.14,0.65,0.93*14
$GPGSV,3,1,12,02,48,267,45,03,09,037,36,04,08,074,40,05,10,200,38*79
$GPGSV,3,2,12,06,74,340,44,12,31,313,46,17,51,088,46,19,67,058,42*79
$GPGSV,3,3,12,24,08,264,39,28,20,161,40,46,40,211,42,51,35,222,34*71
$GLGSV,2,1,07,66,40,095,47,67,19,152,43,79,31,222,39,81,,,46*5D
$GLGSV,2,2,07,82,44,313,42,88,10,075,43,,,,41*6E
$GNGLL,3851.54056,N,07726.28628,W,165019.00,A,A*60
$GNRMC,165020.00,A,3851.54046,N,07726.28627,W,0.022,,210720,,,A*7B
$GNVTG,,T,,M,0.022,N,0.041,K,A*38
$GNGGA,165020.00,3851.54046,N,07726.28627,W,1,12,0.65,97.9,M,-34.6,M,,*4A
$GNGSA,A,3,02,06,12,17,19,24,04,05,28,03,,,1.14,0.65,0.93*16
$GNGSA,A,3,82,66,88,67,79,,,,,,,,1.14,0.65,0.93*14
$GPGSV,3,1,12,02,48,267,46,03,09,037,36,04,08,074,40,05,10,200,34*76
$GPGSV,3,2,12,06,74,340,44,12,31,313,46,17,51,088,46,19,67,058,42*79
$GPGSV,3,3,12,24,08,264,39,28,20,161,39,46,40,211,43,51,35,222,37*7D
$GLGSV,2,1,07,66,40,095,47,67,19,152,43,79,31,222,38,81,,,46*5C
$GLGSV,2,2,07,82,44,313,42,88,10,075,42,,,,41*6F
$GNGLL,3851.54046,N,07726.28627,W,165020.00,A,A*64
$GNRMC,165021.00,A,3851.54033,N,07726.28629,W,0.018,,210720,,,A*7F
$GNVTG,,T,,M,0.018,N,0.034,K,A*33
$GNGGA,165021.00,3851.54033,N,07726.28629,W,1,12,0.65,98.0,M,-34.6,M,,*41
$GNGSA,A,3,02,06,12,17,19,24,04,05,28,03,,,1.14,0.65,0.93*16
$GNGSA,A,3,82,66,88,67,79,,,,,,,,1.14,0.65,0.93*14
$GPGSV,3,1,12,02,48,267,46,03,09,037,36,04,08,074,40,05,10,200,39*7B
$GPGSV,3,2,12,06,74,340,44,12,31,313,45,17,51,088,46,19,67,058,41*79
$GPGSV,3,3,12,24,08,264,36,28,20,161,40,46,40,211,41,51,35,222,36*7F
$GLGSV,2,1,07,66,40,095,46,67,19,152,43,79,31,222,43,81,,,47*50
$GLGSV,2,2,07,82,44,313,42,88,10,075,43,,,,42*6D
$GNGLL,3851.54033,N,07726.28629,W,165021.00,A,A*69
$GNRMC,165022.00,A,3851.54024,N,07726.28634,W,0.022,,210720,,,A*7F
$GNVTG,,T,,M,0.022,N,0.041,K,A*38
$GNGGA,165022.00,3851.54024,N,07726.28634,W,1,12,0.65,98.2,M,-34.6,M,,*4A
$GNGSA,A,3,02,06,12,17,19,24,04,05,28,03,,,1.14,0.65,0.93*16
$GNGSA,A,3,82,66,88,67,79,,,,,,,,1.14,0.65,0.93*14
$GPGSV,3,1,12,02,48,267,45,03,09,037,35,04,08,074,40,05,10,200,39*7B
$GPGSV,3,2,12,06,74,340,45,12,31,313,46,17,51,088,45,19,67,058,42*7B
$GPGSV,3,3,12,24,08,264,35,28,20,161,41,46,40,211,41,51,35,222,36*7D
$GLGSV,2,1,07,66,40,095,47,67,19,152,44,79,31,222,43,81,,,47*56
$GLGSV,2,2,07,82,44,313,43,88,10,075,41,,,,42*6E
$GNGLL,3851.54024,N,07726.28634,W,165022.00,A,A*60
$GNRMC,165023.00,A,3851.54019,N,07726.28641,W,0.012,,210720,,,A*71
$GNVTG,,T,,M,0.012,N,0.021,K,A*3D
$GNGGA,165023.00,3851.54019,N,07726.28641,W,1,12,0.65,98.2,M,-34.6,M,,*47
$GNGSA,A,3,02,06,12,17,19,24,04,05,28,03,,,1.14,0.65,0.93*16
$GNGSA,A,3,82,66,88,67,79,,,,,,,,1.14,0.65,0.93*14
$GPGSV,3,1,12,02,48,267,45,03,09,037,36,04,08,074,40,05,10,200,38*79
$GPGSV,3,2,12,06,74,340,46,12,31,313,46,17,51,088,45,19,67,058,42*78
$GPGSV,3,3,12,24,08,264,38,28,20,161,39,46,40,211,43,51,35,222,36*7D
$GLGSV,2,1,07,66,40,095,47,67,19,152,43,79,31,222,42,81,,,46*51
$GLGSV,2,2,07,82,44,313,44,88,10,075,42,,,,42*6A
$GNGLL,3851.54019,N,07726.28641,W,165023.00,A,A*6D
$GNRMC,165024.00,A,3851.54023,N,07726.28653,W,0.026,,210720,,,A*7B
$GNVTG,,T,,M,0.026,N,0.048,K,A*35
$GNGGA,165024.00,3851.54023,N,07726.28653,W,1,12,0.65,98.1,M,-34.6,M,,*49
$GNGSA,A,3,02,06,12,17,19,24,04,05,28,03,,,1.14,0.65,0.93*16
$GNGSA,A,3,82,66,88,67,79,,,,,,,,1.14,0.65,0.93*14
$GPGSV,3,1,12,02,48,267,44,03,09,037,38,04,08,074,40,05,10,200,38*76
$GPGSV,3,2,12,06,74,340,44,12,31,313,44,17,51,088,46,19,67,058,44*7D
$GPGSV,3,3,12,24,08,264,37,28,20,161,41,46,40,211,42,51,35,222,36*7C
$GLGSV,2,1,07,66,40,095,46,67,19,152,43,79,31,222,42,81,,,45*53
$GLGSV,2,2,07,82,44,313,43,88,10,075,42,,,,41*6E
$GNGLL,3851.54023,N,07726.28653,W,165024.00,A,A*60
$GNRMC,165025.00,A,3851.54022,N,07726.28654,W,0.010,,210720,,,A*79
$GNVTG,,T,,M,0.010,N,0.019,K,A*34
$GNGGA,165025.00,3851.54022,N,07726.28654,W,1,12,0.65,98.2,M,-34.6,M,,*4D
$GNGSA,A,3,02,06,12,17,19,24,04,05,28,03,,,1.14,0.65,0.93*16
$GNGSA,A,3,82,66,88,67,79,,,,,,,,1.14,0.65,0.93*14
$GPGSV,3,1,12,02,48,267,45,03,09,037,37,04,08,074,38,05,10,200,40*78
$GPGSV,3,2,12,06,74,340,44,12,31,313,44,17,51,088,45,19,67,058,42*78
$GPGSV,3,3,12,24,08,264,35,28,20,161,40,46,40,211,41,51,35,222,36*7C
$GLGSV,2,1,07,66,40,095,46,67,19,152,43,79,31,222,39,81,,,44*5E
$GLGSV,2,2,07,82,44,313,44,88,10,075,42,,,,42*6A
$GNGLL,3851.54022,N,07726.28654,W,165025.00,A,A*67
$GNRMC,165026.00,A,3851.54016,N,07726.28647,W,0.023,,210720,,,A*7F
$GNVTG,,T,,M,0.023,N,0.042,K,A*3A
$GNGGA,165026.00,3851.54016,N,07726.28647,W,1,12,0.65,98.4,M,-34.6,M,,*4D
$GNGSA,A,3,02,06,12,17,19,24,04,05,28,03,,,1.14,0.65,0.93*16
$GNGSA,A,3,82,66,88,67,79,,,,,,,,1.14,0.65,0.93*14
$GPGSV,3,1,12,02,48,267,45,03,09,037,36,04,08,074,39,05,10,200,39*76
$GPGSV,3,2,12,06,74,340,45,12,31,313,45,17,51,088,44,19,67,058,43*78
$GPGSV,3,3,12,24,08,264,36,28,20,161,40,46,40,211,41,51,35,222,38*71
$GLGSV,2,1,07,66,40,095,47,67,19,152,42,79,31,222,41,81,,,44*51
$GLGSV,2,2,07,82,44,313,45,88,10,075,42,,,,42*6B
$GNGLL,3851.54016,N,07726.28647,W,165026.00,A,A*61
$GNRMC,165027.00,A,3851.54010,N,07726.28639,W,0.018,,210720,,,A*79
$GNVTG,,T,,M,0.018,N,0.033,K,A*34
$GNGGA,165027.00,3851.54010,N,07726.28639,W,1,12,0.65,98.5,M,-34.6,M,,*42
$GNGSA,A,3,02,06,12,17,19,24,04,05,28,03,,,1.14,0.65,0.93*16
$GNGSA,A,3,82,66,88,67,79,,,,,,,,1.14,0.65,0.93*14
$GPGSV,3,1,12,02,48,267,46,03,09,037,38,04,08,074,40,05,10,200,38*74
$GPGSV,3,2,12,06,74,340,45,12,31,313,44,17,51,088,44,19,67,058,43*79
$GPGSV,3,3,12,24,08,264,36,28,20,161,41,46,40,211,41,51,35,222,38*70
$GLGSV,2,1,07,66,40,095,47,67,19,152,43,79,31,222,43,81,,,44*52
$GLGSV,2,2,07,82,44,313,45,88,10,075,41,,,,42*68
$GNGLL,3851.54010,N,07726.28639,W,165027.00,A,A*6F
$GNRMC,165028.00,A,3851.54005,N,07726.28632,W,0.015,,210720,,,A*74
$GNVTG,,T,,M,0.015,N,0.028,K,A*33
$GNGGA,165028.00,3851.54005,N,07726.28632,W,1,12,0.65,98.6,M,-34.6,M,,*41
$GNGSA,A,3,02,06,12,17,19,24,04,05,28,03,,,1.14,0.65,0.93*16
$GNGSA,A,3,82,66,88,67,79,,,,,,,,1.14,0.65,0.93*14
$GPGSV,3,1,12,02,48,267,46,03,09,037,38,04,08,074,40,05,10,200,38*74
$GPGSV,3,2,12,06,74,340,44,12,31,313,44,17,51,088,44,19,67,058,43*78
$GPGSV,3,3,12,24,08,264,35,28,20,161,42,46,40,211,42,51,35,222,38*73
$GLGSV,2,1,07,66,40,095,47,67,19,152,43,79,31,222,43,81,,,44*52
$GLGSV,2,2,07,82,44,313,45,88,10,075,42,,,,42*6B
$GNGLL,3851.54005,N,07726.28632,W,165028.00,A,A*6F
$GNRMC,165029.00,A,3851.54001,N,07726.28622,W,0.005,,210720,,,A*71
$GNVTG,,T,,M,0.005,N,0.009,K,A*31
$GNGGA,165029.00,3851.54001,N,07726.28622,W,1,12,0.65,98.6,M,-34.6,M,,*45
$GNGSA,A,3,02,06,12,17,19,24,04,05,28,03,,,1.14,0.65,0.93*16
$GNGSA,A,3,82,66,88,67,79,,,,,,,,1.14,0.65,0.93*14
$GPGSV,3,1,12,02,48,267,45,03,09,037,36,04,08,074,40,05,10,200,38*79
$GPGSV,3,2,12,06,74,340,44,12,31,313,45,17,51,088,44,19,67,058,43*79
$GPGSV,3,3,12,24,08,264,35,28,20,161,42,46,40,211,42,51,35,222,38*73
$GLGSV,2,1,07,66,40,095,47,67,19,152,43,79,31,222,42,81,,,46*51
$GLGSV,2,2,07,82,44,313,46,88,10,075,42,,,,42*68
$GNGLL,3851.54001,N,07726.28622,W,165029.00,A,A*6B
$GNRMC,165030.00,A,3851.53995,N,07726.28612,W,0.011,,210720,,,A*7C
$GNVTG,,T,,M,0.011,N,0.021,K,A*3E
$GNGGA,165030.00,3851.53995,N,07726.28612,W,1,12,0.65,98.6,M,-34.6,M,,*4D
$GNGSA,A,3,02,06,12,17,19,24,04,05,28,03,,,1.14,0.65,0.93*16
$GNGSA,A,3,82,66,88,67,79,,,,,,,,1.14,0.65,0.93*14
$GPGSV,3,1,12,02,48,267,44,03,09,037,36,04,08,074,40,05,10,200,37*77
$GPGSV,3,2,12,06,74,340,43,12,31,313,45,17,51,088,44,19,67,058,43*7E
$GPGSV,3,3,12,24,08,264,31,28,20,161,41,46,40,211,44,51,35,222,36*7C
$GLGSV,2,1,07,66,40,095,46,67,19,152,43,79,31,222,44,81,,,45*55
$GLGSV,2,2,07,82,44,313,44,88,10,075,40,,,,41*6B
$GNGLL,3851.53995,N,07726.28612,W,165030.00,A,A*63
$GNRMC,165031.00,A,3851.53987,N,07726.28601,W,0.019,,210720,,,A*74
$GNVTG,,T,,M,0.019,N,0.036,K,A*30
$GNGGA,165031.00,3851.53987,N,07726.28601,W,1,12,0.65,98.6,M,-34.6,M,,*4D
$GNGSA,A,3,02,06,12,17,19,24,04,05,28,03,,,1.14,0.65,0.93*16
$GNGSA,A,3,82,66,88,67,79,,,,,,,,1.14,0.65,0.93*14
$GPGSV,3,1,12,02,48,267,43,03,09,037,35,04,08,074,38,05,10,200,39*72
$GPGSV,3,2,12,06,74,340,44,12,31,313,45,17,51,088,45,19,67,058,43*78
$GPGSV,3,3,12,24,08,264,35,28,20,161,41,46,40,211,44,51,35,222,35*7B
$GLGSV,2,1,07,66,40,095,46,67,19,152,43,79,31,222,39,81,,,45*5F
$GLGSV,2,2,07,82,44,313,44,88,10,075,41,,,,41*6A
$GNGLL,3851.53987,N,07726.28601,W,165031.00,A,A*63
$GNRMC,165032.00,A,3851.53983,N,07726.28595,W,0.061,,210720,,,A*72
$GNVTG,,T,,M,0.061,N,0.113,K,A*39
$GNGGA,165032.00,3851.53983,N,07726.28595,W,1,12,0.65,98.6,M,-34.6,M,,*44
$GNGSA,A,3,02,06,12,17,19,24,04,05,28,03,,,1.14,0.65,0.93*16
$GNGSA,A,3,82,66,88,67,79,,,,,,,,1.14,0.65,0.93*14
$GPGSV,3,1,12,02,48,267,44,03,09,037,38,04,08,074,39,05,10,200,37*77
$GPGSV,3,2,12,06,74,340,44,12,31,313,44,17,51,088,45,19,67,058,41*7B
$GPGSV,3,3,12,24,08,264,30,28,20,161,41,46,40,211,44,51,35,222,35*7E
$GLGSV,2,1,07,66,40,095,46,67,19,152,45,79,31,222,42,81,,,46*56
$GLGSV,2,2,07,82,44,313,43,88,10,075,39,,,,39*6D
$GNGLL,3851.53983,N,07726.28595,W,165032.00,A,A*6A
$GNRMC,165033.00,A,3851.53982,N,07726.28592,W,0.038,,210720,,,A*79
$GNVTG,,T,,M,0.038,N,0.070,K,A*31
$GNGGA,165033.00,3851.53982,N,07726.28592,W,1,12,0.65,98.5,M,-34.6,M,,*40
$GNGSA,A,3,02,06,12,17,19,24,04,05,28,03,,,1.14,0.65,0.93*16
$GNGSA,A,3,82,66,88,67,79,,,,,,,,1.14,0.65,0.93*14
$GPGSV,3,1,12,02,48,267,46,03,09,037,36,04,08,074,40,05,10,200,38*7A
$GPGSV,3,2,12,06,74,340,44,12,31,313,42,17,51,088,44,19,67,058,41*7C
$GPGSV,3,3,12,24,08,264,36,28,20,161,41,46,40,211,44,51,35,222,33*7E
$GLGSV,2,1,07,66,40,095,47,67,19,152,44,79,31,222,41,81,,,45*56
$GLGSV,2,2,07,82,44,313,44,88,10,075,44,,,,41*6F
$GNGLL,3851.53982,N,07726.28592,W,165033.00,A,A*6D
$GNRMC,165034.00,A,3851.53981,N,07726.28590,W,0.018,,210720,,,A*7D
$GNVTG,,T,,M,0.018,N,0.033,K,A*34
$GNGGA,165034.00,3851.53981,N,07726.28590,W,1,12,0.65,98.5,M,-34.6,M,,*46
$GNGSA,A,3,02,06,12,17,19,24,04,05,28,03,,,1.14,0.65,0.93*16
$GNGSA,A,3,82,66,88,67,79,,,,,,,,1.14,0.65,0.93*14
$GPGSV,3,1,12,02,48,267,46,03,09,037,35,04,08,074,39,05,10,200,38*77
$GPGSV,3,2,12,06,74,340,45,12,31,313,44,17,51,088,45,19,67,058,41*7A
$GPGSV,3,3,12,24,08,264,35,28,20,161,41,46,40,211,43,51,35,222,35*7C
$GLGSV,2,1,07,66,40,095,46,67,19,152,44,79,31,222,42,81,,,45*54
$GLGSV,2,2,07,82,44,313,44,88,10,075,41,,,,41*6A
$GNGLL,3851.53981,N,07726.28590,W,165034.00,A,A*6B
$GNRMC,165035.00,A,3851.53975,N,07726.28590,W,0.025,,210720,,,A*79
$GNVTG,,T,,M,0.025,N,0.046,K,A*38
$GNGGA,165035.00,3851.53975,N,07726.28590,W,1,12,0.64,98.5,M,-34.6,M,,*4D
$GNGSA,A,3,02,06,12,17,19,24,04,05,28,03,,,1.12,0.64,0.92*10
$GNGSA,A,3,82,66,88,67,79,81,,,,,,,1.12,0.64,0.92*1B
$GPGSV,3,1,12,02,48,267,45,03,09,037,33,04,08,074,39,05,10,200,38*72
$GPGSV,3,2,12,06,74,340,44,12,31,313,44,17,51,088,44,19,67,058,41*7A
$GPGSV,3,3,12,24,08,264,34,28,20,161,41,46,40,211,43,51,35,222,35*7D
$GLGSV,2,1,07,66,40,095,47,67,19,152,44,79,31,222,41,81,49,035,45*6D
$GLGSV,2,2,07,82,44,313,44,88,10,075,41,,,,42*69
$GNGLL,3851.53975,N,07726.28590,W,165035.00,A,A*61
$GNRMC,165036.00,A,3851.53972,N,07726.28589,W,0.016,,210720,,,A*75
$GNVTG,,T,,M,0.016,N,0.029,K,A*31
$GNGGA,165036.00,3851.53972,N,07726.28589,W,1,12,0.64,98.5,M,-34.6,M,,*41
$GNGSA,A,3,02,06,12,17,19,24,04,05,28,03,,,1.12,0.64,0.92*10
$GNGSA,A,3,82,66,88,67,79,81,,,,,,,1.12,0.64,0.92*1B
$GPGSV,3,1,12,02,48,267,46,03,09,037,37,04,08,074,39,05,10,200,38*75
$GPGSV,3,2,12,06,74,340,44,12,31,313,45,17,51,088,45,19,67,058,41*7A
$GPGSV,3,3,12,24,08,264,34,28,20,161,41,46,40,211,43,51,35,222,35*7D
$GLGSV,2,1,07,66,40,095,47,67,19,152,44,79,31,222,41,81,49,035,45*6D
$GLGSV,2,2,07,82,44,313,43,88,10,075,41,,,,41*6D
$GNGLL,3851.53972,N,07726.28589,W,165036.00,A,A*6D
$GNRMC,165037.00,A,3851.53969,N,07726.28588,W,0.002,,210720,,,A*7A
$GNVTG,,T,,M,0.002,N,0.004,K,A*3B
$GNGGA,165037.00,3851.53969,N,07726.28588,W,1,12,0.64,98.5,M,-34.6,M,,*4B
$GNGSA,A,3,02,06,12,17,19,24,04,05,28,03,,,1.12,0.64,0.92*10
$GNGSA,A,3,82,66,88,67,79,81,,,,,,,1.12,0.64,0.92*1B
$GPGSV,3,1,12,02,48,267,46,03,09,037,37,04,08,074,39,05,10,200,38*75
$GPGSV,3,2,12,06,74,340,44,12,31,313,45,17,51,088,45,19,67,058,40*7B
$GPGSV,3,3,12,24,08,264,34,28,20,161,40,46,40,211,43,51,35,222,35*7C
$GLGSV,2,1,07,66,40,095,47,67,19,152,44,79,30,221,41,81,49,035,45*6F
$GLGSV,2,2,07,82,44,313,44,88,10,075,41,,,,41*6A
$GNGLL,3851.53969,N,07726.28588,W,165037.00,A,A*67
$GNRMC,165038.00,A,3851.53968,N,07726.28588,W,0.004,,210720,,,A*72
$GNVTG,,T,,M,0.004,N,0.008,K,A*31
$GNGGA,165038.00,3851.53968,N,07726.28588,W,1,12,0.64,98.5,M,-34.6,M,,*45
$GNGSA,A,3,02,06,12,17,19,24,04,05,28,03,,,1.12,0.64,0.92*10
$GNGSA,A,3,82,66,88,67,79,81,,,,,,,1.12,0.64,0.92*1B
$GPGSV,3,1,12,02,48,267,46,03,09,037,36,04,08,074,39,05,10,200,38*74
$GPGSV,3,2,12,06,74,340,44,12,31,313,45,17,51,088,45,19,67,058,40*7B
$GPGSV,3,3,12,24,08,264,34,28,20,161,40,46,40,211,43,51,35,222,35*7C
$GLGSV,2,1,07,66,40,095,47,67,19,152,44,79,30,221,41,81,49,035,44*6E
$GLGSV,2,2,07,82,44,313,44,88,10,075,41,,,,41*6A
$GNGLL,3851.53968,N,07726.28588,W,165038.00,A,A*69
$GNRMC,165039.00,A,3851.53966,N,07726.28587,W,0.015,,210720,,,A*72
$GNVTG,,T,,M,0.015,N,0.027,K,A*3C
$GNGGA,165039.00,3851.53966,N,07726.28587,W,1,12,0.64,98.6,M,-34.6,M,,*46
$GNGSA,A,3,02,06,12,17,19,24,04,05,28,03,,,1.12,0.64,0.92*10
$GNGSA,A,3,82,66,88,67,79,81,80,,,,,,1.12,0.64,0.92*13
$GPGSV,3,1,12,02,48,267,45,03,09,037,36,04,08,074,39,05,10,200,37*78
$GPGSV,3,2,12,06,74,340,44,12,31,313,45,17,51,088,45,19,67,058,40*7B
$GPGSV,3,3,12,24,08,264,34,28,20,161,40,46,40,211,43,51,35,222,34*7D
$GLGSV,2,1,07,66,40,095,47,67,19,152,44,79,30,221,40,80,37,290,42*6C
$GLGSV,2,2,07,81,49,035,44,82,44,314,44,88,10,075,41*5A
$GNGLL,3851.53966,N,07726.28587,W,165039.00,A,A*69
$GNRMC,165040.00,A,3851.53963,N,07726.28582,W,0.009,,210720,,,A*71
$GNVTG,,T,,M,0.009,N,0.016,K,A*33
$GNGGA,165040.00,3851.53963,N,07726.28582,W,1,12,0.62,98.6,M,-34.6,M,,*4E
$GNGSA,A,3,02,06,12,17,19,24,04,05,28,03,,,1.11,0.62,0.92*15
$GNGSA,A,3,82,66,88,67,79,81,80,,,,,,1.11,0.62,0.92*16
$GPGSV,3,1,12,02,48,267,46,03,09,037,36,04,08,074,39,05,10,200,38*74
$GPGSV,3,2,12,06,74,340,45,12,31,313,46,17,51,088,45,19,67,058,40*79
$GPGSV,3,3,12,24,08,264,34,28,20,161,40,46,40,211,43,51,35,222,34*7D
$GLGSV,2,1,07,66,40,095,47,67,19,152,44,79,30,221,40,80,37,290,41*6F
$GLGSV,2,2,07,81,49,035,45,82,44,314,44,88,10,075,42*58
$GNGLL,3851.53963,N,07726.28582,W,165040.00,A,A*67
$GNRMC,165041.00,A,3851.53959,N,07726.28579,W,0.013,,210720,,,A*76
$GNVTG,,T,,M,0.013,N,0.024,K,A*39
$GNGGA,165041.00,3851.53959,N,07726.28579,W,1,12,0.62,98.6,M,-34.6,M,,*42
$GNGSA,A,3,02,06,12,17,19,24,04,05,28,03,,,1.11,0.62,0.92*15
$GNGSA,A,3,82,66,88,67,79,81,80,,,,,,1.11,0.62,0.92*16
$GPGSV,3,1,12,02,48,268,46,03,09,037,35,04,08,074,39,05,10,200,37*77
$GPGSV,3,2,12,06,74,340,45,12,31,313,46,17,51,088,45,19,67,058,41*78
$GPGSV,3,3,12,24,08,264,35,28,20,161,40,46,40,211,43,51,35,222,34*7C
$GLGSV,2,1,07,66,40,095,47,67,19,152,44,79,30,221,40,80,37,290,42*6C
$GLGSV,2,2,07,81,49,035,45,82,44,314,44,88,10,075,42*58
$GNGLL,3851.53959,N,07726.28579,W,165041.00,A,A*6B
$GNRMC,165042.00,A,3851.53955,N,07726.28577,W,0.009,,210720,,,A*7C
$GNVTG,,T,,M,0.009,N,0.017,K,A*32
$GNGGA,165042.00,3851.53955,N,07726.28577,W,1,12,0.62,98.7,M,-34.6,M,,*42
$GNGSA,A,3,02,06,12,17,19,24,04,05,28,03,,,1.11,0.62,0.92*15
$GNGSA,A,3,82,66,88,67,79,81,80,,,,,,1.11,0.62,0.92*16
$GPGSV,3,1,12,02,48,268,45,03,09,037,35,04,08,074,39,05,10,200,37*74
$GPGSV,3,2,12,06,74,340,45,12,31,313,46,17,51,088,45,19,67,058,41*78
$GPGSV,3,3,12,24,08,264,35,28,20,161,40,46,40,211,44,51,35,222,34*7B
$GLGSV,2,1,07,66,40,095,47,67,19,152,44,79,30,221,40,80,37,290,42*6C
$GLGSV,2,2,07,81,49,035,46,82,44,314,44,88,10,075,42*5B
$GNGLL,3851.53955,N,07726.28577,W,165042.00,A,A*6A
$GNRMC,165043.00,A,3851.53951,N,07726.28576,W,0.017,,210720,,,A*77
$GNVTG,,T,,M,0.017,N,0.032,K,A*3A
$GNGGA,165043.00,3851.53951,N,07726.28576,W,1,12,0.62,98.7,M,-34.6,M,,*46
$GNGSA,A,3,02,06,12,17,19,24,04,05,28,03,,,1.11,0.62,0.92*15
$GNGSA,A,3,82,66,88,67,79,81,80,,,,,,1.11,0.62,0.92*16
$GPGSV,3,1,12,02,48,268,45,03,09,037,36,04,08,074,39,05,10,200,37*77
$GPGSV,3,2,12,06,74,340,45,12,31,313,46,17,51,088,45,19,67,058,41*78
$GPGSV,3,3,12,24,08,264,35,28,20,161,40,46,40,211,44,51,35,222,34*7B
$GLGSV,2,1,07,66,40,095,47,67,19,152,43,79,30,221,40,80,37,290,42*6B
$GLGSV,2,2,07,81,49,035,46,82,44,314,44,88,10,075,42*5B
$GNGLL,3851.53951,N,07726.28576,W,165043.00,A,A*6E
$GNRMC,165044.00,A,3851.53947,N,07726.28577,W,0.016,,210720,,,A*77
$GNVTG,,T,,M,0.016,N,0.030,K,A*39
$GNGGA,165044.00,3851.53947,N,07726.28577,W,1,12,0.62,98.8,M,-34.6,M,,*48
$GNGSA,A,3,02,06,12,17,19,24,04,05,28,03,,,1.11,0.62,0.92*15
$GNGSA,A,3,82,66,88,67,79,81,80,,,,,,1.11,0.62,0.92*16
$GPGSV,3,1,12,02,48,268,45,03,09,037,35,04,08,074,39,05,10,200,37*74
$GPGSV,3,2,12,06,74,340,45,12,31,313,46,17,51,088,45,19,67,058,42*7B
$GPGSV,3,3,12,24,08,264,35,28,20,161,40,46,40,211,43,51,35,222,34*7C
$GLGSV,2,1,07,66,40,095,47,67,19,152,43,79,30,221,41,80,37,290,42*6A
$GLGSV,2,2,07,81,49,035,46,82,44,314,44,88,10,075,41*58
$GNGLL,3851.53947,N,07726.28577,W,165044.00,A,A*6F
$GNRMC,165045.00,A,3851.53944,N,07726.28580,W,0.014,,210720,,,A*7F
$GNVTG,,T,,M,0.014,N,0.026,K,A*3C
$GNGGA,165045.00,3851.53944,N,07726.28580,W,1,12,0.62,98.7,M,-34.6,M,,*4D
$GNGSA,A,3,02,06,12,17,19,24,04,05,28,03,,,1.11,0.62,0.92*15
$GNGSA,A,3,82,66,88,67,79,81,80,,,,,,1.11,0.62,0.92*16
$GPGSV,3,1,12,02,48,268,45,03,09,037,36,04,08,074,39,05,10,200,37*77
$GPGSV,3,2,12,06,74,341,44,12,31,313,45,17,51,088,46,19,67,058,42*7B
$GPGSV,3,3,12,24,08,264,35,28,20,161,40,46,40,211,43,51,35,222,34*7C
$GLGSV,2,1,07,66,40,095,47,67,19,152,43,79,30,221,41,80,37,290,42*6A
$GLGSV,2,2,07,81,49,035,45,82,44,314,44,88,10,075,41*5B
$GNGLL,3851.53944,N,07726.28580,W,165045.00,A,A*65
$GNRMC,165046.00,A,3851.53939,N,07726.28583,W,0.008,,210720,,,A*78
$GNVTG,,T,,M,0.008,N,0.016,K,A*32
$GNGGA,165046.00,3851.53939,N,07726.28583,W,1,12,0.62,98.7,M,-34.6,M,,*47
$GNGSA,A,3,02,06,12,17,19,24,04,05,28,03,,,1.11,0.62,0.92*15
$GNGSA,A,3,82,66,88,67,79,81,80,,,,,,1.11,0.62,0.92*16
$GPGSV,3,1,12,02,48,268,45,03,09,037,36,04,08,074,39,05,10,200,37*77
$GPGSV,3,2,12,06,74,341,44,12,31,313,45,17,51,088,46,19,67,058,42*7B
$GPGSV,3,3,12,24,08,264,35,28,20,161,39,46,40,211,43,51,35,222,34*72
$GLGSV,2,1,07,66,40,095,47,67,19,152,43,79,30,221,41,80,37,290,42*6A
$GLGSV,2,2,07,81,49,035,45,82,44,314,43,88,10,075,41*5C
$GNGLL,3851.53939,N,07726.28583,W,165046.00,A,A*6F
$GNRMC,165047.00,A,3851.53934,N,07726.28586,W,0.010,,210720,,,A*78
$GNVTG,,T,,M,0.010,N,0.019,K,A*34
$GNGGA,165047.00,3851.53934,N,07726.28586,W,1,12,0.62,98.6,M,-34.6,M,,*4F
$GNGSA,A,3,02,06,12,17,19,24,04,05,28,03,,,1.11,0.62,0.92*15
$GNGSA,A,3,82,66,88,67,79,81,80,,,,,,1.11,0.62,0.92*16
$GPGSV,3,1,12,02,48,268,45,03,09,037,36,04,08,074,39,05,10,200,37*77
$GPGSV,3,2,12,06,74,341,44,12,31,313,45,17,51,088,45,19,67,058,42*78
$GPGSV,3,3,12,24,08,264,35,28,20,161,40,46,40,211,43,51,35,222,34*7C
$GLGSV,2,1,07,66,40,095,47,67,19,152,43,79,30,221,41,80,37,290,42*6A
$GLGSV,2,2,07,81,49,035,45,82,44,314,43,88,10,075,41*5C
$GNGLL,3851.53934,N,07726.28586,W,165047.00,A,A*66
$GNRMC,165048.00,A,3851.53931,N,07726.28590,W,0.013,,210720,,,A*76
$GNVTG,,T,,M,0.013,N,0.025,K,A*38
$GNGGA,165048.00,3851.53931,N,07726.28590,W,1,12,0.62,98.5,M,-34.6,M,,*41
$GNGSA,A,3,02,06,12,17,19,24,04,05,28,03,,,1.11,0.62,0.92*15
$GNGSA,A,3,82,66,88,67,79,81,80,,,,,,1.11,0.62,0.92*16
$GPGSV,3,1,12,02,48,268,45,03,09,037,36,04,08,074,39,05,10,200,37*77
$GPGSV,3,2,12,06,74,341,44,12,31,313,45,17,51,088,45,19,67,058,42*78
$GPGSV,3,3,12,24,08,264,35,28,20,161,40,46,40,211,44,51,35,222,35*7A
$GLGSV,2,1,07,66,40,095,47,67,19,152,43,79,30,221,41,80,37,290,42*6A
$GLGSV,2,2,07,81,49,035,45,82,44,314,42,88,10,075,41*5D
$GNGLL,3851.53931,N,07726.28590,W,165048.00,A,A*6B
$GNRMC,165049.00,A,3851.53927,N,07726.28592,W,0.017,,210720,,,A*76
$GNVTG,,T,,M,0.017,N,0.031,K,A*39
$GNGGA,165049.00,3851.53927,N,07726.28592,W,1,12,0.62,98.4,M,-34.6,M,,*44
$GNGSA,A,3,02,06,12,17,19,24,04,05,28,03,,,1.11,0.62,0.92*15
$GNGSA,A,3,82,66,88,67,79,81,80,,,,,,1.11,0.62,0.92*16
$GPGSV,3,1,12,02,48,268,45,03,09,037,35,04,08,074,39,05,10,200,37*74
$GPGSV,3,2,12,06,74,341,44,12,31,313,45,17,51,088,45,19,67,058,42*78
$GPGSV,3,3,12,24,08,264,36,28,20,161,40,46,40,211,44,51,35,222,34*78
$GLGSV,2,1,07,66,40,095,47,67,19,152,43,79,30,221,41,80,37,290,42*6A
$GLGSV,2,2,07,81,49,035,45,82,44,314,42,88,10,075,41*5D
$GNGLL,3851.53927,N,07726.28592,W,165049.00,A,A*6F
$GNRMC,165050.00,A,3851.53926,N,07726.28595,W,0.022,,210720,,,A*7E
$GNVTG,,T,,M,0.022,N,0.040,K,A*39
$GNGGA,165050.00,3851.53926,N,07726.28595,W,1,12,0.62,98.3,M,-34.6,M,,*4D
$GNGSA,A,3,02,06,12,17,19,24,04,05,28,03,,,1.11,0.62,0.92*15
$GNGSA,A,3,82,66,88,67,79,81,80,,,,,,1.11,0.62,0.92*16
$GPGSV,3,1,12,02,48,268,45,03,09,037,35,04,08,074,39,05,10,200,37*74
$GPGSV,3,2,12,06,74,341,44,12,31,313,45,17,51,088,45,19,67,058,42*78
$GPGSV,3,3,12,24,08,264,36,28,20,161,39,46,40,211,43,51,35,222,34*71
$GLGSV,2,1,07,66,40,095,47,67,19,152,43,79,30,221,40,80,37,290,42*6B
$GLGSV,2,2,07,81,49,035,45,82,44,314,43,88,10,075,41*5C
$GNGLL,3851.53926,N,07726.28595,W,165050.00,A,A*61
$GNRMC,165051.00,A,3851.53925,N,07726.28600,W,0.023,,210720,,,A*72
$GNVTG,,T,,M,0.023,N,0.042,K,A*3A
$GNGGA,165051.00,3851.53925,N,07726.28600,W,1,12,0.62,98.2,M,-34.6,M,,*41
$GNGSA,A,3,02,06,12,17,19,24,04,05,28,03,,,1.11,0.62,0.92*15
$GNGSA,A,3,82,66,88,67,79,81,80,,,,,,1.11,0.62,0.92*16
$GPGSV,3,1,12,02,48,268,45,03,09,037,35,04,08,074,39,05,10,200,37*74
$GPGSV,3,2,12,06,74,341,44,12,31,313,45,17,51,088,45,19,67,058,43*79
$GPGSV,3,3,12,24,08,264,36,28,20,161,39,46,40,211,43,51,35,222,34*71
$GLGSV,2,1,07,66,40,095,47,67,19,152,43,79,30,221,41,80,37,290,42*6A
$GLGSV,2,2,07,81,49,035,45,82,44,314,44,88,10,075,41*5B
$GNGLL,3851.53925,N,07726.28600,W,165051.00,A,A*6C
$GNRMC,165052.00,A,3851.53925,N,07726.28604,W,0.019,,210720,,,A*7C
$GNVTG,,T,,M,0.019,N,0.035,K,A*33
$GNGGA,165052.00,3851.53925,N,07726.28604,W,1,12,0.62,98.1,M,-34.6,M,,*45
$GNGSA,A,3,02,06,12,17,19,24,04,05,28,03,,,1.11,0.62,0.92*15
$GNGSA,A,3,82,66,88,67,79,81,80,,,,,,1.11,0.62,0.92*16
$GPGSV,3,1,12,02,48,268,45,03,09,037,35,04,08,074,39,05,10,200,37*74
$GPGSV,3,2,12,06,74,341,44,12,31,313,45,17,51,088,45,19,67,058,43*79
$GPGSV,3,3,12,24,08,264,36,28,20,161,39,46,40,211,43,51,35,222,34*71
$GLGSV,2,1,07,66,40,095,47,67,19,152,43,79,30,221,41,80,37,290,42*6A
$GLGSV,2,2,07,81,49,035,46,82,44,314,44,88,10,075,41*58
$GNGLL,3851.53925,N,07726.28604,W,165052.00,A,A*6B
$GNRMC,165053.00,A,3851.53922,N,07726.28607,W,0.015,,210720,,,A*75
$GNVTG,,T,,M,0.015,N,0.028,K,A*33
$GNGGA,165053.00,3851.53922,N,07726.28607,W,1,12,0.62,98.1,M,-34.6,M,,*40
$GNGSA,A,3,02,06,12,17,19,24,04,05,28,03,,,1.11,0.62,0.92*15
$GNGSA,A,3,82,66,88,67,79,81,80,,,,,,1.11,0.62,0.92*16
$GPGSV,3,1,12,02,48,268,45,03,09,037,35,04,08,074,39,05,10,200,37*74
$GPGSV,3,2,12,06,74,341,44,12,31,313,45,17,51,088,45,19,67,058,43*79
$GPGSV,3,3,12,24,08,264,35,28,20,161,39,46,40,211,43,51,35,222,35*73
$GLGSV,2,1,07,66,40,095,47,67,19,152,44,79,30,221,41,80,37,290,42*6D
$GLGSV,2,2,07,81,49,035,46,82,44,314,44,88,10,075,41*58
$GNGLL,3851.53922,N,07726.28607,W,165053.00,A,A*6E
$GNRMC,165054.00,A,3851.53922,N,07726.28609,W,0.006,,210720,,,A*7E
$GNVTG,,T,,M,0.006,N,0.012,K,A*38
$GNGGA,165054.00,3851.53922,N,07726.28609,W,1,12,0.62,98.0,M,-34.6,M,,*48
$GNGSA,A,3,02,06,12,17,19,24,04,05,28,03,,,1.11,0.62,0.92*15
$GNGSA,A,3,82,66,88,67,79,81,80,,,,,,1.11,0.62,0.92*16
$GPGSV,3,1,12,02,48,268,45,03,09,037,35,04,08,074,39,05,10,200,36*75
$GPGSV,3,2,12,06,74,341,44,12,31,313,45,17,51,088,45,19,67,058,43*79
$GPGSV,3,3,12,24,08,264,35,28,20,161,39,46,40,211,43,51,35,222,34*72
$GLGSV,2,1,07,66,40,095,47,67,19,152,44,79,30,221,41,80,37,290,42*6D
$GLGSV,2,2,07,81,49,035,46,82,44,314,44,88,10,075,41*58
$GNGLL,3851.53922,N,07726.28609,W,165054.00,A,A*67
$GNRMC,165055.00,A,3851.53919,N,07726.28610,W,0.005,,210720,,,A*7C
$GNVTG,,T,,M,0.005,N,0.009,K,A*31
$GNGGA,165055.00,3851.53919,N,07726.28610,W,1,12,0.62,98.0,M,-34.6,M,,*49
$GNGSA,A,3,02,06,12,17,19,24,04,05,28,03,,,1.11,0.62,0.92*15
$GNGSA,A,3,82,66,88,67,79,81,80,,,,,,1.11,0.62,0.92*16
$GPGSV,3,1,12,02,48,268,45,03,09,037,35,04,08,074,39,05,10,200,36*75
$GPGSV,3,2,12,06,74,341,44,12,31,313,45,17,51,088,45,19,67,058,43*79
$GPGSV,3,3,12,24,08,264,36,28,20,161,39,46,21,244,44,51,35,223,35*71
$GLGSV,2,1,07,66,40,095,47,67,19,152,44,79,30,221,41,80,37,290,41*6E
$GLGSV,2,2,07,81,49,035,46,82,44,314,44,88,10,075,41*58
$GNGLL,3851.53919,N,07726.28610,W,165055.00,A,A*66
$GNRMC,165056.00,A,3851.53917,N,07726.28611,W,0.023,,210720,,,A*74
$GNVTG,,T,,M,0.023,N,0.043,K,A*3B
$GNGGA,165056.00,3851.53917,N,07726.28611,W,1,12,0.62,98.0,M,-34.6,M,,*45
$GNGSA,A,3,02,06,12,17,19,24,04,05,28,03,,,1.11,0.62,0.92*15
$GNGSA,A,3,82,66,88,67,79,81,80,,,,,,1.11,0.62,0.92*16
$GPGSV,3,1,12,02,48,268,45,03,09,037,35,04,08,074,39,05,10,200,36*75
$GPGSV,3,2,12,06,74,341,44,12,31,313,45,17,51,088,45,19,67,058,43*79
$GPGSV,3,3,12,24,08,264,35,28,20,161,38,46,21,244,43,51,35,223,34*75
$GLGSV,2,1,07,66,40,095,47,67,19,152,43,79,30,221,41,80,37,290,41*69
$GLGSV,2,2,07,81,49,035,46,82,44,314,44,88,10,075,41*58
$GNGLL,3851.53917,N,07726.28611,W,165056.00,A,A*6A
$GNRMC,165057.00,A,3851.53915,N,07726.28612,W,0.027,,210720,,,A*70
$GNVTG,,T,,M,0.027,N,0.051,K,A*3C
$GNGGA,165057.00,3851.53915,N,07726.28612,W,1,12,0.62,97.9,M,-34.6,M,,*43
$GNGSA,A,3,02,06,12,17,19,24,04,05,28,03,,,1.11,0.62,0.92*15
$GNGSA,A,3,82,66,88,67,79,81,80,,,,,,1.11,0.62,0.92*16
$GPGSV,3,1,12,02,48,268,45,03,09,037,34,04,08,074,39,05,10,200,36*74
$GPGSV,3,2,12,06,74,341,45,12,31,313,45,17,51,088,45,19,67,058,43*78
$GPGSV,3,3,12,24,08,264,36,28,20,161,38,46,21,244,43,51,35,223,34*76
$GLGSV,2,1,08,66,40,095,48,67,19,152,43,73,01,343,,79,30,221,41*6A
$GLGSV,2,2,08,80,37,290,41,81,49,035,46,82,44,314,44,88,10,075,40*64
$GNGLL,3851.53915,N,07726.28612,W,165057.00,A,A*6A
$GNRMC,165058.00,A,3851.53912,N,07726.28612,W,0.036,,210720,,,A*78
$GNVTG,,T,,M,0.036,N,0.067,K,A*39
$GNGGA,165058.00,3851.53912,N,07726.28612,W,1,12,0.62,98.0,M,-34.6,M,,*4D
$GNGSA,A,3,02,06,12,17,19,24,04,05,28,03,,,1.11,0.62,0.92*15
$GNGSA,A,3,82,66,88,67,79,81,80,,,,,,1.11,0.62,0.92*16
$GPGSV,3,1,12,02,48,268,45,03,09,037,35,04,08,074,39,05,10,200,36*75
$GPGSV,3,2,12,06,74,341,45,12,31,313,45,17,51,088,45,19,67,058,43*78
$GPGSV,3,3,12,24,08,264,36,28,20,161,38,46,21,244,43,51,35,223,35*77
$GLGSV,3,1,09,66,40,095,48,67,19,152,43,73,01,343,,79,30,221,41*6A
$GLGSV,3,2,09,80,37,290,42,81,49,035,46,82,44,314,44,88,10,075,40*67
$GLGSV,3,3,09,,,,32*6D
$GNGLL,3851.53912,N,07726.28612,W,165058.00,A,A*62
$GNRMC,165059.00,A,3851.53911,N,07726.28612,W,0.020,,210720,,,A*7D
$GNVTG,,T,,M,0.020,N,0.037,K,A*3B
$GNGGA,165059.00,3851.53911,N,07726.28612,W,1,12,0.62,97.9,M,-34.6,M,,*49
$GNGSA,A,3,02,06,12,17,19,24,04,05,28,03,,,1.11,0.62,0.92*15
$GNGSA,A,3,82,66,88,67,79,81,80,,,,,,1.11,0.62,0.92*16
$GPGSV,3,1,12,02,48,268,45,03,09,037,35,04,08,074,39,05,10,200,36*75
$GPGSV,3,2,12,06,74,341,45,12,31,313,45,17,51,088,45,19,67,058,43*78
$GPGSV,3,3,12,24,08,264,36,28,20,161,38,46,21,244,43,51,35,223,34*76
$GLGSV,3,1,09,66,40,095,48,67,19,152,44,73,01,343,,79,30,221,41*6D
$GLGSV,3,2,09,80,37,290,42,81,49,035,46,82,44,314,44,88,10,075,40*67
$GLGSV,3,3,09,,,,33*6C
$GNGLL,3851.53911,N,07726.28612,W,165059.00,A,A*60
$GNRMC,165100.00,A,3851.53909,N,07726.28614,W,0.002,,210720,,,A*7F
$GNVTG,,T,,M,0.002,N,0.004,K,A*3B
$GNGGA,165100.00,3851.53909,N,07726.28614,W,1,12,0.62,97.9,M,-34.6,M,,*4B
$GNGSA,A,3,02,06,12,17,19,24,04,05,28,03,,,1.11,0.62,0.92*15
$GNGSA,A,3,82,66,88,67,79,81,80,,,,,,1.11,0.62,0.92*16
$GPGSV,3,1,12,02,48,268,45,03,09,037,35,04,08,074,39,05,10,200,36*75
$GPGSV,3,2,12,06,74,341,45,12,31,313,45,17,51,088,46,19,67,058,43*7B
$GPGSV,3,3,12,24,08,264,36,28,20,161,38,46,21,244,43,51,35,223,35*77
$GLGSV,3,1,09,66,40,095,48,67,19,152,44,73,01,343,,79,30,221,42*6E
$GLGSV,3,2,09,80,37,290,42,81,49,035,46,82,44,314,44,88,10,075,40*67
$GLGSV,3,3,09,,,,34*6B
$GNGLL,3851.53909,N,07726.28614,W,165100.00,A,A*62
$GNRMC,165101.00,A,3851.53907,N,07726.28617,W,0.023,,210720,,,A*70
$GNVTG,,T,,M,0.023,N,0.042,K,A*3A
$GNGGA,165101.00,3851.53907,N,07726.28617,W,1,12,0.62,97.9,M,-34.6,M,,*47
$GNGSA,A,3,02,06,12,17,19,24,04,05,28,03,,,1.11,0.62,0.92*15
$GNGSA,A,3,82,66,88,67,79,81,80,,,,,,1.11,0.62,0.92*16
$GPGSV,3,1,12,02,48,268,45,03,09,037,35,04,08,074,39,05,10,200,36*75
$GPGSV,3,2,12,06,74,341,45,12,31,313,44,17,51,088,46,19,67,058,42*7B
$GPGSV,3,3,12,24,08,264,36,28,20,161,38,46,21,244,43,51,35,223,35*77
$GLGSV,3,1,09,66,40,095,48,67,19,152,43,73,01,343,,79,30,221,42*69
$GLGSV,3,2,09,80,37,290,43,81,49,035,46,82,44,314,44,88,10,075,40*66
$GLGSV,3,3,09,,,,34*6B
$GNGLL,3851.53907,N,07726.28617,W,165101.00,A,A*6E
$GNRMC,165102.00,A,3851.53906,N,07726.28620,W,0.004,,210720,,,A*73
$GNVTG,,T,,M,0.004,N,0.008,K,A*31
$GNGGA,165102.00,3851.53906,N,07726.28620,W,1,12,0.62,97.9,M,-34.6,M,,*41
$GNGSA,A,3,02,06,12,17,19,24,04,05,28,03,,,1.11,0.62,0.92*15
$GNGSA,A,3,82,66,88,67,79,81,80,,,,,,1.11,0.62,0.92*16
$GPGSV,3,1,12,02,48,268,45,03,09,037,35,04,08,074,39,05,10,200,36*75
$GPGSV,3,2,12,06,74,341,45,12,31,313,44,17,51,088,46,19,67,058,42*7B
$GPGSV,3,3,12,24,08,264,36,28,20,161,37,46,21,244,43,51,35,223,35*78
$GLGSV,3,1,09,66,40,095,49,67,19,152,43,73,01,343,,79,30,221,42*68
$GLGSV,3,2,09,80,37,290,43,81,49,035,45,82,44,314,43,88,10,075,40*62
$GLGSV,3,3,09,,,,33*6C
$GNGLL,3851.53906,N,07726.28620,W,165102.00,A,A*68
$GNRMC,165103.00,A,3851.53906,N,07726.28623,W,0.010,,210720,,,A*74
$GNVTG,,T,,M,0.010,N,0.018,K,A*35
$GNGGA,165103.00,3851.53906,N,07726.28623,W,1,12,0.62,97.8,M,-34.6,M,,*42
$GNGSA,A,3,02,06,12,17,19,24,04,05,28,03,,,1.11,0.62,0.92*15
$GNGSA,A,3,82,66,88,67,79,81,80,,,,,,1.11,0.62,0.92*16
$GPGSV,3,1,12,02,48,268,45,03,09,037,35,04,08,074,39,05,10,200,36*75
$GPGSV,3,2,12,06,74,341,45,12,31,313,44,17,51,088,46,19,67,058,42*7B
$GPGSV,3,3,12,24,08,264,36,28,20,161,37,46,21,244,43,51,35,223,35*78
$GLGSV,3,1,09,66,40,095,48,67,19,152,43,73,01,343,,79,30,221,42*69
$GLGSV,3,2,09,80,37,290,43,81,49,035,45,82,44,314,43,88,10,075,40*62
$GLGSV,3,3,09,,,,33*6C
$GNGLL,3851.53906,N,07726.28623,W,165103.00,A,A*6A
$GNRMC,165104.00,A,3851.53906,N,07726.28626,W,0.008,,210720,,,A*7F
$GNVTG,,T,,M,0.008,N,0.014,K,A*30
$GNGGA,165104.00,3851.53906,N,07726.28626,W,1,12,0.62,97.7,M,-34.6,M,,*4F
$GNGSA,A,3,02,06,12,17,19,24,04,05,28,03,,,1.11,0.62,0.92*15
$GNGSA,A,3,82,66,88,67,79,81,80,,,,,,1.11,0.62,0.92*16
$GPGSV,3,1,12,02,48,268,45,03,09,037,35,04,08,074,38,05,10,200,36*74
$GPGSV,3,2,12,06,74,341,45,12,31,313,44,17,51,088,46,19,67,058,41*78
$GPGSV,3,3,12,24,08,264,36,28,20,161,37,46,21,244,43,51,35,223,35*78
$GLGSV,3,1,09,66,40,095,48,67,19,152,43,73,01,343,,79,30,221,42*69
$GLGSV,3,2,09,80,37,290,42,81,49,035,45,82,44,314,44,88,10,075,40*64
$GLGSV,3,3,09,,,,32*6D
$GNGLL,3851.53906,N,07726.28626,W,165104.00,A,A*68
$GNRMC,165105.00,A,3851.53906,N,07726.28628,W,0.007,,210720,,,A*7F
$GNVTG,,T,,M,0.007,N,0.013,K,A*38
$GNGGA,165105.00,3851.53906,N,07726.28628,W,1,12,0.62,97.7,M,-34.6,M,,*40
$GNGSA,A,3,02,06,12,17,19,24,04,05,28,03,,,1.11,0.62,0.92*15
$GNGSA,A,3,82,66,88,67,79,81,80,,,,,,1.11,0.62,0.92*16
$GPGSV,3,1,12,02,48,268,45,03,09,037,35,04,08,074,39,05,10,200,37*74
$GPGSV,3,2,12,06,74,341,45,12,31,313,44,17,51,088,46,19,67,058,41*78
$GPGSV,3,3,12,24,08,264,35,28,20,161,37,46,21,244,43,51,35,223,35*7B
$GLGSV,3,1,09,66,40,095,48,67,19,151,43,73,01,343,,79,30,221,43*6B
$GLGSV,3,2,09,80,37,290,42,81,49,035,45,82,44,314,44,88,10,075,40*64
$GLGSV,3,3,09,,,,32*6D
$GNGLL,3851.53906,N,07726.28628,W,165105.00,A,A*67
$GNRMC,165106.00,A,3851.53906,N,07726.28629,W,0.019,,210720,,,A*72
$GNVTG,,T,,M,0.019,N,0.036,K,A*30
$GNGGA,165106.00,3851.53906,N,07726.28629,W,1,12,0.62,97.7,M,-34.6,M,,*42
$GNGSA,A,3,02,06,12,17,19,24,04,05,28,03,,,1.11,0.62,0.92*15
$GNGSA,A,3,82,66,88,67,79,81,80,,,,,,1.11,0.62,0.92*16
$GPGSV,3,1,12,02,48,268,45,03,09,037,35,04,08,074,38,05,10,200,37*75
$GPGSV,3,2,12,06,74,341,45,12,31,313,44,17,51,088,46,19,67,058,41*78
$GPGSV,3,3,12,24,08,264,35,28,20,161,37,46,21,244,44,51,35,223,35*7C
$GLGSV,3,1,09,66,40,095,49,67,19,151,44,73,01,343,,79,30,221,43*6D
$GLGSV,3,2,09,80,37,290,42,81,49,035,45,82,44,314,44,88,10,075,40*64
$GLGSV,3,3,09,,,,31*6E
$GNGLL,3851.53906,N,07726.28629,W,165106.00,A,A*65
$GNRMC,165107.00,A,3851.53907,N,07726.28629,W,0.014,,210720,,,A*7F
$GNVTG,,T,,M,0.014,N,0.027,K,A*3D
$GNGGA,165107.00,3851.53907,N,07726.28629,W,1,12,0.62,97.7,M,-34.6,M,,*42
$GNGSA,A,3,02,06,12,17,19,24,04,05,28,03,,,1.11,0.62,0.92*15
$GNGSA,A,3,82,66,88,67,79,81,80,,,,,,1.11,0.62,0.92*16
$GPGSV,3,1,12,02,48,268,45,03,09,037,35,04,08,074,38,05,10,200,36*74
$GPGSV,3,2,12,06,74,341,45,12,31,313,44,17,51,088,46,19,67,058,41*78
$GPGSV,3,3,12,24,08,264,34,28,20,161,38,46,21,244,43,51,35,223,35*75
$GLGSV,3,1,09,66,40,095,49,67,19,151,44,73,01,343,,79,30,221,44*6A
$GLGSV,3,2,09,80,37,290,41,81,49,035,45,82,44,314,44,88,10,075,40*67
$GLGSV,3,3,09,,,,31*6E
$GNGLL,3851.53907,N,07726.28629,W,165107.00,A,A*65
$GNRMC,165108.00,A,3851.53908,N,07726.28631,W,0.012,,210720,,,A*70
$GNVTG,,T,,M,0.012,N,0.022,K,A*3E
$GNGGA,165108.00,3851.53908,N,07726.28631,W,1,12,0.62,97.7,M,-34.6,M,,*4B
$GNGSA,A,3,02,06,12,17,19,24,04,05,28,03,,,1.11,0.62,0.92*15
$GNGSA,A,3,82,66,88,67,79,81,80,,,,,,1.11,0.62,0.92*16
$GPGSV,3,1,12,02,48,268,45,03,09,037,35,04,08,074,38,05,10,200,36*74
$GPGSV,3,2,12,06,74,341,44,12,31,313,44,17,51,088,45,19,67,058,41*7A
$GPGSV,3,3,12,24,08,264,34,28,20,161,38,46,21,244,43,51,35,223,35*75
$GLGSV,3,1,09,66,40,095,48,67,19,151,44,73,01,343,,79,30,221,44*6B
$GLGSV,3,2,09,80,37,290,41,81,49,035,45,82,44,314,44,88,10,075,40*67
$GLGSV,3,3,09,,,,30*6F
$GNGLL,3851.53908,N,07726.28631,W,165108.00,A,A*6C
$GNRMC,165109.00,A,3851.53910,N,07726.28633,W,0.013,,210720,,,A*7B
$GNVTG,,T,,M,0.013,N,0.025,K,A*38
$GNGGA,165109.00,3851.53910,N,07726.28633,W,1,12,0.59,97.6,M,-34.6,M,,*48
$GNGSA,A,3,02,06,12,17,19,24,04,05,28,03,,,1.06,0.59,0.88*10
$GNGSA,A,3,82,66,88,67,79,81,80,65,,,,,1.06,0.59,0.88*10
$GPGSV,3,1,12,02,48,268,45,03,09,037,35,04,08,074,38,05,10,200,36*74
$GPGSV,3,2,12,06,74,341,45,12,31,313,44,17,51,088,45,19,67,058,42*78
$GPGSV,3,3,12,24,08,264,34,28,20,161,38,46,21,244,43,51,35,223,35*75
$GLGSV,3,1,09,65,14,029,29,66,40,095,48,67,19,151,44,73,01,343,*61
$GLGSV,3,2,09,79,30,221,44,80,37,290,41,81,49,035,45,82,44,314,44*6C
$GLGSV,3,3,09,88,10,075,40*5B
$GNGLL,3851.53910,N,07726.28633,W,165109.00,A,A*66
$GNRMC,165110.00,A,3851.53913,N,07726.28633,W,0.019,,210720,,,A*7A
$GNVTG,,T,,M,0.019,N,0.036,K,A*30
$GNGGA,165110.00,3851.53913,N,07726.28633,W,1,12,0.59,97.6,M,-34.6,M,,*43
$GNGSA,A,3,02,06,12,17,19,24,04,05,28,03,,,1.06,0.59,0.88*10
$GNGSA,A,3,82,66,88,67,79,81,80,65,,,,,1.06,0.59,0.88*10
$GPGSV,3,1,12,02,48,268,45,03,09,037,35,04,08,074,38,05,10,200,36*74
$GPGSV,3,2,12,06,74,341,45,12,31,313,44,17,51,088,45,19,67,058,42*78
$GPGSV,3,3,12,24,08,264,35,28,20,161,38,46,21,244,43,51,35,223,35*74
$GLGSV,3,1,09,65,14,029,29,66,40,095,48,67,19,151,44,73,01,343,*61
$GLGSV,3,2,09,79,30,221,44,80,37,290,41,81,49,035,45,82,44,314,44*6C
$GLGSV,3,3,09,88,10,075,41*5A
$GNGLL,3851.53913,N,07726.28633,W,165110.00,A,A*6D
$GNRMC,165111.00,A,3851.53917,N,07726.28633,W,0.009,,210720,,,A*7E
$GNVTG,,T,,M,0.009,N,0.017,K,A*32
$GNGGA,165111.00,3851.53917,N,07726.28633,W,1,12,0.59,97.5,M,-34.6,M,,*45
$GNGSA,A,3,02,06,12,17,19,24,04,05,28,03,,,1.06,0.59,0.88*10
$GNGSA,A,3,82,66,88,67,79,81,80,65,,,,,1.06,0.59,0.88*10
$GPGSV,3,1,12,02,48,268,45,03,09,037,35,04,08,074,38,05,10,200,37*75
$GPGSV,3,2,12,06,74,341,44,12,31,313,44,17,51,088,45,19,67,058,42*79
$GPGSV,3,3,12,24,08,264,35,28,20,161,38,46,21,244,43,51,35,223,35*74
$GLGSV,3,1,09,65,14,029,29,66,40,095,48,67,19,151,44,73,01,343,*61
$GLGSV,3,2,09,79,30,221,44,80,37,290,41,81,49,035,44,82,44,314,44*6D
$GLGSV,3,3,09,88,10,075,42*59
$GNGLL,3851.53917,N,07726.28633,W,165111.00,A,A*68
$GNRMC,165112.00,A,3851.53920,N,07726.28633,W,0.004,,210720,,,A*74
$GNVTG,,T,,M,0.004,N,0.008,K,A*31
$GNGGA,165112.00,3851.53920,N,07726.28633,W,1,12,0.59,97.5,M,-34.6,M,,*42
$GNGSA,A,3,02,06,12,17,19,24,04,05,28,03,,,1.06,0.59,0.88*10
$GNGSA,A,3,82,66,88,67,79,81,80,65,,,,,1.06,0.59,0.88*10
$GPGSV,3,1,12,02,48,268,45,03,09,037,34,04,08,074,39,05,10,200,37*75
$GPGSV,3,2,12,06,74,341,44,12,31,313,44,17,51,088,45,19,67,058,42*79
$GPGSV,3,3,12,24,08,264,35,28,20,161,38,46,21,244,43,51,35,223,35*74
$GLGSV,3,1,09,65,14,029,29,66,40,095,48,67,19,151,44,73,01,343,*61
$GLGSV,3,2,09,79,30,221,44,80,37,290,41,81,49,035,45,82,44,314,43*6B
$GLGSV,3,3,09,88,10,075,42*59
$GNGLL,3851.53920,N,07726.28633,W,165112.00,A,A*6F
$GNRMC,165113.00,A,3851.53924,N,07726.28631,W,0.015,,210720,,,A*73
$GNVTG,,T,,M,0.015,N,0.027,K,A*3C
$GNGGA,165113.00,3851.53924,N,07726.28631,W,1,12,0.59,97.4,M,-34.6,M,,*44
$GNGSA,A,3,02,06,12,17,19,24,04,05,28,03,,,1.06,0.59,0.88*10
$GNGSA,A,3,82,66,88,67,79,81,80,65,,,,,1.06,0.59,0.88*10
$GPGSV,3,1,12,02,48,268,45,03,09,037,34,04,08,074,38,05,10,200,36*75
$GPGSV,3,2,12,06,74,341,44,12,31,313,45,17,51,088,44,19,67,058,42*79
$GPGSV,3,3,12,24,08,264,36,28,20,161,38,46,21,244,43,51,35,223,35*77
$GLGSV,3,1,09,65,14,029,29,66,40,095,48,67,19,151,45,73,01,343,*60
$GLGSV,3,2,09,79,30,221,44,80,37,290,41,81,49,035,46,82,44,314,44*6F
$GLGSV,3,3,09,88,10,075,42*59
$GNGLL,3851.53924,N,07726.28631,W,165113.00,A,A*68
$GNRMC,165114.00,A,3851.53928,N,07726.28629,W,0.013,,210720,,,A*77
$GNVTG,,T,,M,0.013,N,0.025,K,A*38
$GNGGA,165114.00,3851.53928,N,07726.28629,W,1,12,0.59,97.4,M,-34.6,M,,*46
$GNGSA,A,3,02,06,12,17,19,24,04,05,28,03,,,1.06,0.59,0.88*10
$GNGSA,A,3,82,66,88,67,79,81,80,65,,,,,1.06,0.59,0.88*10
$GPGSV,3,1,12,02,48,268,46,03,09,037,34,04,08,074,39,05,10,200,37*76
$GPGSV,3,2,12,06,74,341,44,12,31,313,45,17,51,088,44,19,67,058,42*79
$GPGSV,3,3,12,24,08,264,36,28,20,161,38,46,21,244,43,51,35,223,35*77
$GLGSV,3,1,09,65,14,029,29,66,40,095,48,67,19,151,45,73,01,343,*60
$GLGSV,3,2,09,79,30,221,44,80,37,290,41,81,49,035,46,82,44,314,44*6F
$GLGSV,3,3,09,88,10,075,42*59
$GNGLL,3851.53928,N,07726.28629,W,165114.00,A,A*6A
$GNRMC,165115.00,A,3851.53931,N,07726.28627,W,0.007,,210720,,,A*75
$GNVTG,,T,,M,0.007,N,0.014,K,A*3F
$GNGGA,165115.00,3851.53931,N,07726.28627,W,1,12,0.59,97.3,M,-34.6,M,,*46
$GNGSA,A,3,02,06,12,17,19,24,04,05,28,03,,,1.06,0.59,0.88*10
$GNGSA,A,3,82,66,88,67,79,81,80,65,,,,,1.06,0.59,0.88*10
$GPGSV,3,1,12,02,48,268,45,03,09,037,34,04,08,074,39,05,10,200,37*75
$GPGSV,3,2,12,06,74,341,44,12,31,313,45,17,51,088,44,19,67,058,42*79
$GPGSV,3,3,12,24,08,264,36,28,20,161,38,46,21,244,43,51,35,223,35*77
$GLGSV,3,1,09,65,14,029,29,66,40,095,48,67,19,151,44,73,01,343,*61
$GLGSV,3,2,09,79,30,221,43,80,37,290,42,81,49,035,46,82,44,314,43*6C
$GLGSV,3,3,09,88,10,075,42*59
$GNGLL,3851.53931,N,07726.28627,W,165115.00,A,A*6D
$GNRMC,165116.00,A,3851.53932,N,07726.28625,W,0.005,,210720,,,A*75
$GNVTG,,T,,M,0.005,N,0.010,K,A*39
$GNGGA,165116.00,3851.53932,N,07726.28625,W,1,12,0.59,97.3,M,-34.6,M,,*44
$GNGSA,A,3,02,06,12,17,19,24,04,05,28,03,,,1.06,0.59,0.88*10
$GNGSA,A,3,82,66,88,67,79,81,80,65,,,,,1.06,0.59,0.88*10
$GPGSV,3,1,12,02,48,268,46,03,09,037,34,04,08,074,39,05,10,200,37*76
$GPGSV,3,2,12,06,74,341,44,12,31,313,45,17,51,088,44,19,67,058,42*79
$GPGSV,3,3,12,24,08,264,36,28,20,161,38,46,21,244,43,51,35,223,35*77
$GLGSV,3,1,09,65,14,029,28,66,40,095,48,67,19,151,44,73,01,343,*60
$GLGSV,3,2,09,79,30,221,43,80,37,290,42,81,49,035,46,82,44,314,44*6B
$GLGSV,3,3,09,88,10,075,42*59
$GNGLL,3851.53932,N,07726.28625,W,165116.00,A,A*6F
$GNRMC,165117.00,A,3851.53932,N,07726.28624,W,0.008,,210720,,,A*78
$GNVTG,,T,,M,0.008,N,0.015,K,A*31
$GNGGA,165117.00,3851.53932,N,07726.28624,W,1,12,0.59,97.3,M,-34.6,M,,*44
$GNGSA,A,3,02,06,12,17,19,24,04,05,28,03,,,1.06,0.59,0.88*10
$GNGSA,A,3,82,66,88,67,79,81,80,65,,,,,1.06,0.59,0.88*10
$GPGSV,3,1,12,02,48,268,46,03,08,037,34,04,08,074,39,05,10,200,37*77
$GPGSV,3,2,12,06,74,341,44,12,31,313,45,17,51,088,44,19,67,058,42*79
$GPGSV,3,3,12,24,08,264,36,28,20,161,39,46,21,244,43,51,35,223,35*76
$GLGSV,3,1,09,65,14,029,28,66,40,095,48,67,19,151,45,73,01,343,*61
$GLGSV,3,2,09,79,30,221,43,80,37,290,42,81,49,035,46,82,44,314,44*6B
$GLGSV,3,3,09,88,10,075,42*59
$GNGLL,3851.53932,N,07726.28624,W,165117.00,A,A*6F
$GNRMC,165118.00,A,3851.53931,N,07726.28623,W,0.017,,210720,,,A*7D
$GNVTG,,T,,M,0.017,N,0.032,K,A*3A
$GNGGA,165118.00,3851.53931,N,07726.28623,W,1,12,0.59,97.4,M,-34.6,M,,*48
$GNGSA,A,3,02,06,12,17,19,24,04,05,28,03,,,1.06,0.59,0.88*10
$GNGSA,A,3,82,66,88,67,79,81,80,65,,,,,1.06,0.59,0.88*10
$GPGSV,3,1,12,02,48,268,46,03,08,037,33,04,08,073,39,05,10,200,37*77
$GPGSV,3,2,12,06,74,341,44,12,31,313,45,17,51,088,44,19,67,058,43*78
$GPGSV,3,3,12,24,08,264,36,28,20,161,39,46,21,244,43,51,35,223,35*76
$GLGSV,3,1,09,65,14,029,28,66,40,095,48,67,19,151,44,73,01,343,*60
$GLGSV,3,2,09,79,30,221,43,80,37,290,42,81,49,035,46,82,44,314,44*6B
$GLGSV,3,3,09,88,10,075,42*59
$GNGLL,3851.53931,N,07726.28623,W,165118.00,A,A*64
$GNRMC,165119.00,A,3851.53929,N,07726.28622,W,0.016,,210720,,,A*75
$GNVTG,,T,,M,0.016,N,0.030,K,A*39
$GNGGA,165119.00,3851.53929,N,07726.28622,W,1,12,0.59,97.4,M,-34.6,M,,*41
$GNGSA,A,3,02,06,12,17,19,24,04,05,28,03,,,1.06,0.59,0.88*10
$GNGSA,A,3,82,66,88,67,79,81,80,65,,,,,1.06,0.59,0.88*10
$GPGSV,3,1,12,02,48,268,46,03,08,037,33,04,08,073,39,05,11,200,37*76
$GPGSV,3,2,12,06,74,341,44,12,31,313,45,17,51,088,44,19,67,058,43*78
$GPGSV,3,3,12,24,08,264,35,28,20,161,38,46,21,244,43,51,35,223,35*74
$GLGSV,3,1,09,65,14,029,28,66,40,095,48,67,19,151,44,73,01,343,*60
$GLGSV,3,2,09,79,30,221,43,80,37,290,42,81,49,035,46,82,44,314,43*6C
$GLGSV,3,3,09,88,10,075,42*59
$GNGLL,3851.53929,N,07726.28622,W,165119.00,A,A*6D
$GNRMC,165120.00,A,3851.53929,N,07726.28620,W,0.002,,210720,,,A*78
$GNVTG,,T,,M,0.002,N,0.004,K,A*3B
$GNGGA,165120.00,3851.53929,N,07726.28620,W,1,12,0.59,97.5,M,-34.6,M,,*48
$GNGSA,A,3,02,06,12,17,19,24,04,05,28,03,,,1.06,0.59,0.88*10
$GNGSA,A,3,82,66,88,67,79,81,80,65,,,,,1.06,0.59,0.88*10
$GPGSV,3,1,12,02,48,268,46,03,08,037,34,04,08,073,38,05,11,200,37*70
$GPGSV,3,2,12,06,74,342,44,12,31,313,45,17,51,088,45,19,67,058,42*7B
$GPGSV,3,3,12,24,08,264,35,28,20,161,39,46,21,244,43,51,35,223,35*75
$GLGSV,3,1,09,65,14,029,29,66,40,095,48,67,19,151,44,73,01,343,*61
$GLGSV,3,2,09,79,30,221,43,80,37,290,42,81,49,035,46,82,44,314,43*6C
$GLGSV,3,3,09,88,10,075,42*59
$GNGLL,3851.53929,N,07726.28620,W,165120.00,A,A*65
$GNRMC,165121.00,A,3851.53930,N,07726.28618,W,0.009,,210720,,,A*71
$GNVTG,,T,,M,0.009,N,0.017,K,A*32
$GNGGA,165121.00,3851.53930,N,07726.28618,W,1,12,0.59,97.6,M,-34.6,M,,*49
