$GNTXT,01,01,02,u-blox AG - www.u-blox.com*4E
$GNTXT,01,01,02,HW UBX-M80xx 00080000 *43
$GNTXT,01,01,02,EXT CORE 2.01 (75350) Oct 29 2013 16:15:41*5C
$GNTXT,01,01,02,ROM BASE 2.01 (75331) Oct 29 2013 13:28:17*44
$GNTXT,01,01,02,PROTVER 15.00*01
$GNTXT,01,01,02,GNSS OTP:  GPS GLO, SEL:  GPS GLO*67
$GNTXT,01,01,02,ANTSUPERV=AC SD PDoS SR*3E
$GNTXT,01,01,02,ANTSTATUS=DONTKNOW*2D
$GNTXT,01,01,02,FIS 0xEF4015 (79189) found*2D
$GNTXT,01,01,02,LLC FFFFFFFF-FFFFFFED-FFFFFFFF-FFFFFFFF-FFFFFF69*3E
$GNTXT,01,01,02,RF0 dev ok*04
$GNRMC,,V,,,,,,,,,,N*4D
$GNVTG,,,,,,,,,N*2E
$GNGGA,,,,,,0,00,99.99,,,,,,*56
$GNGSA,A,1,,,,,,,,,,,,,99.99,99.99,99.99*2E
$GNGSA,A,1,,,,,,,,,,,,,99.99,99.99,99.99*2E
$GPGSV,1,1,00*79
$GLGSV,1,1,00*65
$GNGLL,,,,,,V,N*7A
$GNTXT,01,01,02,ANTSTATUS=INIT*3B
$GNRMC,,V,,,,,,,,,,N*4D
$GNVTG,,,,,,,,,N*2E
$GNGGA,,,,,,0,00,99.99,,,,,,*56
$GNGSA,A,1,,,,,,,,,,,,,99.99,99.99,99.99*2E
$GNGSA,A,1,,,,,,,,,,,,,99.99,99.99,99.99*2E
$GPGSV,2,1,06,03,,,43,04,,,40,06,,,48,12,,,46*73
$GPGSV,2,2,06,28,,,47,46,,,44*74
$GLGSV,1,1,00*65
$GNGLL,,,,,,V,N*7A
$GNTXT,01,01,02,ANTSTATUS=OK*25
$GNRMC,,V,,,,,,,,,,N*4D
$GNVTG,,,,,,,,,N*2E
$GNGGA,,,,,,0,00,99.99,,,,,,*56
$GNGSA,A,1,,,,,,,,,,,,,99.99,99.99,99.99*2E
$GNGSA,A,1,,,,,,,,,,,,,99.99,99.99,99.99*2E
$GPGSV,2,1,07,03,,,43,04,,,41,06,,,48,12,,,46*73
$GPGSV,2,2,07,28,,,47,46,,,44,51,,,43*76
$GLGSV,1,1,01,,,,40*60
$GNGLL,,,,,,V,N*7A
$GNRMC,,V,,,,,,,,,,N*4D
$GNVTG,,,,,,,,,N*2E
$GNGGA,,,,,,0,00,99.99,,,,,,*56
$GNGSA,A,1,,,,,,,,,,,,,99.99,99.99,99.99*2E
$GNGSA,A,1,,,,,,,,,,,,,99.99,99.99,99.99*2E
$GPGSV,3,1,11,02,,,40,03,,,43,04,,,41,06,,,48*72
$GPGSV,3,2,11,12,,,46,17,,,42,19,,,44,24,,,39*7D
$GPGSV,3,3,11,28,,,47,46,,,44,51,,,42*70
$GLGSV,1,1,01,,,,40*60
$GNGLL,,,,,,V,N*7A
$GNRMC,,V,,,,,,,,,,N*4D
$GNVTG,,,,,,,,,N*2E
$GNGGA,,,,,,0,00,99.99,,,,,,*56
$GNGSA,A,1,,,,,,,,,,,,,99.99,99.99,99.99*2E
$GNGSA,A,1,,,,,,,,,,,,,99.99,99.99,99.99*2E
$GPGSV,3,1,11,02,,,40,03,,,43,04,,,41,06,,,48*72
$GPGSV,3,2,11,12,,,46,17,,,42,19,,,44,24,,,40*73
$GPGSV,3,3,11,28,,,47,46,,,44,51,,,43*71
$GLGSV,1,1,03,,,,40,,,,39,,,,41*6D
$GNGLL,,,,,,V,N*7A
$GNRMC,,V,,,,,,,,,,N*4D
$GNVTG,,,,,,,,,N*2E
$GNGGA,,,,,,0,00,99.99,,,,,,*56
$GNGSA,A,1,,,,,,,,,,,,,99.99,99.99,99.99*2E
$GNGSA,A,1,,,,,,,,,,,,,99.99,99.99,99.99*2E
$GPGSV,3,1,11,02,,,40,03,,,43,04,,,41,06,,,48*72
$GPGSV,3,2,11,12,,,46,17,,,42,19,,,44,24,,,40*73
$GPGSV,3,3,11,28,,,47,46,,,44,51,,,43*71
$GLGSV,1,1,04,,,,40,,,,39,,,,43,,,,37*6C
$GNGLL,,,,,,V,N*7A
$GNRMC,,V,,,,,,,,,,N*4D
$GNVTG,,,,,,,,,N*2E
$GNGGA,,,,,,0,00,99.99,,,,,,*56
$GNGSA,A,1,,,,,,,,,,,,,99.99,99.99,99.99*2E
$GNGSA,A,1,,,,,,,,,,,,,99.99,99.99,99.99*2E
$GPGSV,3,1,11,02,,,41,03,,,44,04,,,41,06,,,48*74
$GPGSV,3,2,11,12,,,46,17,,,42,19,,,44,24,,,40*73
$GPGSV,3,3,11,28,,,47,46,,,44,51,,,42*70
$GLGSV,2,1,05,,,,41,,,,39,,,,43,,,,38*60
$GLGSV,2,2,05,,,,41*65
$GNGLL,,,,,,V,N*7A
$GNRMC,164955.07,V,,,,,,,,,,N*6E
$GNVTG,,,,,,,,,N*2E
$GNGGA,164955.07,,,,,0,00,99.99,,,,,,*75
$GNGSA,A,1,,,,,,,,,,,,,99.99,99.99,99.99*2E
$GNGSA,A,1,,,,,,,,,,,,,99.99,99.99,99.99*2E
$GPGSV,3,1,11,02,,,40,03,,,43,04,,,41,06,,,48*72
$GPGSV,3,2,11,12,,,46,17,,,42,19,,,44,24,,,41*72
$GPGSV,3,3,11,28,,,47,46,,,44,51,,,42*70
$GLGSV,2,1,05,,,,41,,,,39,,,,43,,,,38*60
$GLGSV,2,2,05,,,,41*65
$GNGLL,,,,,164955.07,V,N*59
$GNRMC,164956.00,V,,,,,,,,,,N*6A
$GNVTG,,,,,,,,,N*2E
$GNGGA,164956.00,,,,,0,00,99.99,,,,,,*71
$GNGSA,A,1,,,,,,,,,,,,,99.99,99.99,99.99*2E
$GNGSA,A,1,,,,,,,,,,,,,99.99,99.99,99.99*2E
$GPGSV,3,1,11,02,,,40,03,,,43,04,,,41,06,,,48*72
$GPGSV,3,2,11,12,,,47,17,,,41,19,,,44,24,,,41*70
$GPGSV,3,3,11,28,,,47,46,,,44,51,,,41*73
$GLGSV,2,1,05,,,,41,,,,40,,,,43,,,,38*6E
$GLGSV,2,2,05,,,,41*65
$GNGLL,,,,,164956.00,V,N*5D
$GNRMC,164957.00,V,,,,,,,,,,N*6B
$GNVTG,,,,,,,,,N*2E
$GNGGA,164957.00,,,,,0,00,99.99,,,,,,*70
$GNGSA,A,1,,,,,,,,,,,,,99.99,99.99,99.99*2E
$GNGSA,A,1,,,,,,,,,,,,,99.99,99.99,99.99*2E
$GPGSV,3,1,11,02,,,39,03,,,43,04,,,41,06,,,48*7C
$GPGSV,3,2,11,12,,,46,17,,,41,19,,,44,24,,,40*70
$GPGSV,3,3,11,28,,,47,46,,,43,51,,,42*77
$GLGSV,2,1,06,,,,41,,,,42,,,,42,,,,35*63
$GLGSV,2,2,06,,,,41,,,,42*60
$GNGLL,,,,,164957.00,V,N*5C
$GNRMC,164958.00,V,,,,,,,,,,N*64
$GNVTG,,,,,,,,,N*2E
$GNGGA,164958.00,,,,,0,00,99.99,,,,,,*7F
$GNGSA,A,1,,,,,,,,,,,,,99.99,99.99,99.99*2E
$GNGSA,A,1,,,,,,,,,,,,,99.99,99.99,99.99*2E
$GPGSV,3,1,11,02,,,39,03,,,43,04,,,41,06,,,48*7C
$GPGSV,3,2,11,12,,,45,17,,,42,19,,,44,24,,,40*70
$GPGSV,3,3,11,28,,,47,46,,,44,51,,,42*70
$GLGSV,2,1,06,,,,42,,,,41,,,,43,,,,38*6F
$GLGSV,2,2,06,,,,42,,,,41*60
$GNGLL,,,,,164958.00,V,N*53
$GNRMC,164959.00,V,,,,,,,,,,N*65
$GNVTG,,,,,,,,,N*2E
$GNGGA,164959.00,,,,,0,00,99.99,,,,,,*7E
$GNGSA,A,1,,,,,,,,,,,,,99.99,99.99,99.99*2E
$GNGSA,A,1,,,,,,,,,,,,,99.99,99.99,99.99*2E
$GPGSV,3,1,11,02,,,39,03,,,43,04,,,41,06,,,48*7C
$GPGSV,3,2,11,12,,,46,17,,,42,19,,,45,24,,,40*72
$GPGSV,3,3,11,28,,,47,46,,,44,51,,,42*70
$GLGSV,2,1,06,,,,42,,,,41,,,,43,,,,39*6E
$GLGSV,2,2,06,,,,42,,,,41*60
$GNGLL,,,,,164959.00,V,N*52
$GNRMC,165000.00,V,,,,,,,,,,N*61
$GNVTG,,,,,,,,,N*2E
$GNGGA,165000.00,,,,,0,00,99.99,,,,,,*7A
$GNGSA,A,1,,,,,,,,,,,,,99.99,99.99,99.99*2E
$GNGSA,A,1,,,,,,,,,,,,,99.99,99.99,99.99*2E
$GPGSV,3,1,11,02,,,40,03,,,43,04,,,41,06,,,48*72
$GPGSV,3,2,11,12,,,46,17,,,42,19,,,45,24,,,40*72
$GPGSV,3,3,11,28,,,47,46,,,45,51,,,42*71
$GLGSV,2,1,06,,,,41,,,,39,,,,43,,,,39*62
$GLGSV,2,2,06,,,,41,,,,39*6C
$GNGLL,,,,,165000.00,V,N*56
$GNRMC,165001.00,V,,,,,,,,,,N*60
$GNVTG,,,,,,,,,N*2E
$GNGGA,165001.00,,,,,0,00,99.99,,,,,,*7B
$GNGSA,A,1,,,,,,,,,,,,,99.99,99.99,99.99*2E
$GNGSA,A,1,,,,,,,,,,,,,99.99,99.99,99.99*2E
$GPGSV,3,1,11,02,,,40,03,,,43,04,,,41,06,,,48*72
$GPGSV,3,2,11,12,,,47,17,,,42,19,,,44,24,,,39*7C
$GPGSV,3,3,11,28,,,46,46,,,45,51,,,42*70
$GLGSV,2,1,06,,,,41,,,,40,,,,44,,,,39*6B
$GLGSV,2,2,06,,,,41,,,,40*62
$GNGLL,,,,,165001.00,V,N*57
$GNRMC,165002.00,V,,,,,,,,,,N*63
$GNVTG,,,,,,,,,N*2E
$GNGGA,165002.00,,,,,0,00,99.99,,,,,,*78
$GNGSA,A,1,,,,,,,,,,,,,99.99,99.99,99.99*2E
$GNGSA,A,1,,,,,,,,,,,,,99.99,99.99,99.99*2E
$GPGSV,3,1,11,02,,,39,03,,,44,04,,,41,06,,,48*7B
$GPGSV,3,2,11,12,,,47,17,,,42,19,,,44,24,,,39*7C
$GPGSV,3,3,11,28,,,46,46,,,44,51,,,42*71
$GLGSV,2,1,06,,,,41,,,,38,,,,44,,,,39*64
$GLGSV,2,2,06,,,,41,,,,38*6D
$GNGLL,,,,,165002.00,V,N*54
$GNRMC,165003.00,V,,,,,,,,,,N*62
$GNVTG,,,,,,,,,N*2E
$GNGGA,165003.00,,,,,0,00,99.99,,,,,,*79
$GNGSA,A,1,,,,,,,,,,,,,99.99,99.99,99.99*2E
$GNGSA,A,1,,,,,,,,,,,,,99.99,99.99,99.99*2E
$GPGSV,3,1,11,02,,,39,03,,,44,04,,,41,06,,,48*7B
$GPGSV,3,2,11,12,,,46,17,,,42,19,,,44,24,,,39*7D
$GPGSV,3,3,11,28,,,46,46,,,44,51,,,43*70
$GLGSV,2,1,06,,,,41,,,,38,,,,43,,,,39*63
$GLGSV,2,2,06,,,,41,,,,38*6D
$GNGLL,,,,,165003.00,V,N*55
$GNRMC,165004.00,V,,,,,,,,,,N*65
$GNVTG,,,,,,,,,N*2E
$GNGGA,165004.00,,,,,0,00,99.99,,,,,,*7E
$GNGSA,A,1,,,,,,,,,,,,,99.99,99.99,99.99*2E
$GNGSA,A,1,,,,,,,,,,,,,99.99,99.99,99.99*2E
$GPGSV,3,1,11,02,,,37,03,,,44,04,,,41,06,,,48*75
$GPGSV,3,2,11,12,,,45,17,,,41,19,,,43,24,,,39*7A
$GPGSV,3,3,11,28,,,46,46,,,44,51,,,41*72
$GLGSV,2,1,06,,,,42,,,,44,,,,45,,,,40*63
$GLGSV,2,2,06,,,,42,,,,44*65
$GNGLL,,,,,165004.00,V,N*52
$GNRMC,165005.00,V,,,,,,,,,,N*64
$GNVTG,,,,,,,,,N*2E
$GNGGA,165005.00,,,,,0,00,99.99,,,,,,*7F
$GNGSA,A,1,,,,,,,,,,,,,99.99,99.99,99.99*2E
$GNGSA,A,1,,,,,,,,,,,,,99.99,99.99,99.99*2E
$GPGSV,3,1,11,02,,,39,03,,,44,04,,,41,06,,,49*7A
$GPGSV,3,2,11,12,,,45,17,,,41,19,,,43,24,,,39*7A
$GPGSV,3,3,11,28,,,46,46,,,43,51,,,42*76
$GLGSV,2,1,06,,,,43,,,,43,,,,44,,,,42*66
$GLGSV,2,2,06,,,,43,,,,43*63
$GNGLL,,,,,165005.00,V,N*53
$GNRMC,165006.00,V,,,,,,,,,,N*67
$GNVTG,,,,,,,,,N*2E
$GNGGA,165006.00,,,,,0,00,99.99,,,,,,*7C
$GNGSA,A,1,,,,,,,,,,,,,99.99,99.99,99.99*2E
$GNGSA,A,1,,,,,,,,,,,,,99.99,99.99,99.99*2E
$GPGSV,3,1,11,02,,,39,03,,,45,04,,,41,06,,,48*7A
$GPGSV,3,2,11,12,,,46,17,,,41,19,,,44,24,,,39*7E
$GPGSV,3,3,11,28,,,46,46,,,44,51,,,42*71
$GLGSV,2,1,06,,,,40,,,,41,,,,42,,,,40*63
$GLGSV,2,2,06,,,,40,,,,41*62
$GNGLL,,,,,165006.00,V,N*50
$GNRMC,165007.00,V,,,,,,,,,,N*66
$GNVTG,,,,,,,,,N*2E
$GNGGA,165007.00,,,,,0,00,99.99,,,,,,*7D
$GNGSA,A,1,,,,,,,,,,,,,99.99,99.99,99.99*2E
$GNGSA,A,1,,,,,,,,,,,,,99.99,99.99,99.99*2E
$GPGSV,3,1,12,02,,,39,03,,,45,04,,,41,06,,,48*79
$GPGSV,3,2,12,12,,,46,17,,,41,19,,,44,24,,,40*73
$GPGSV,3,3,12,27,,,30,28,,,46,46,,,44,51,,,42*74
$GLGSV,2,1,06,,,,41,,,,40,,,,42,,,,40*63
$GLGSV,2,2,06,,,,41,,,,40*62
$GNGLL,,,,,165007.00,V,N*51
$GNRMC,165008.00,V,,,,,,,,,,N*69
$GNVTG,,,,,,,,,N*2E
$GNGGA,165008.00,,,,,0,00,99.99,,,,,,*72
$GNGSA,A,1,,,,,,,,,,,,,99.99,99.99,99.99*2E
$GNGSA,A,1,,,,,,,,,,,,,99.99,99.99,99.99*2E
$GPGSV,3,1,11,02,,,39,03,,,44,04,,,40,06,,,48*7A
$GPGSV,3,2,11,12,,,46,17,,,42,19,,,44,24,,,39*7D
$GPGSV,3,3,11,28,,,47,46,,,44,51,,,41*73
$GLGSV,2,1,06,,,,41,,,,43,,,,43,,,,43*62
$GLGSV,2,2,06,,,,41,,,,43*61
$GNGLL,,,,,165008.00,V,N*5E
$GNRMC,165009.00,V,,,,,,,,,,N*68
$GNVTG,,,,,,,,,N*2E
$GNGGA,165009.00,,,,,0,00,99.99,,,,,,*73
$GNGSA,A,1,,,,,,,,,,,,,99.99,99.99,99.99*2E
$GNGSA,A,1,,,,,,,,,,,,,99.99,99.99,99.99*2E
$GPGSV,3,1,11,02,,,40,03,,,45,04,,,40,06,,,48*75
$GPGSV,3,2,11,12,,,45,17,,,41,19,,,44,24,,,39*7D
$GPGSV,3,3,11,28,,,46,46,,,44,51,,,41*72
$GLGSV,2,1,06,,,,40,,,,37,,,,42,,,,41*63
$GLGSV,2,2,06,,,,40,,,,37*63
$GNGLL,,,,,165009.00,V,N*5F
$GNRMC,165010.00,V,,,,,,,,,,N*60
$GNVTG,,,,,,,,,N*2E
$GNGGA,165010.00,,,,,0,00,99.99,,,,,,*7B
$GNGSA,A,1,,,,,,,,,,,,,99.99,99.99,99.99*2E
$GNGSA,A,1,,,,,,,,,,,,,99.99,99.99,99.99*2E
$GPGSV,3,1,11,02,,,40,03,,,45,04,,,40,06,,,48*75
$GPGSV,3,2,11,12,,,44,17,,,42,19,,,44,24,,,39*7F
$GPGSV,3,3,11,28,,,46,46,,,44,51,,,40*73
$GLGSV,2,1,06,,,,40,,,,37,,,,41,,,,40*61
$GLGSV,2,2,06,,,,40,,,,37*63
$GNGLL,,,,,165010.00,V,N*57
$GNRMC,165011.00,V,,,,,,,,,,N*61
$GNVTG,,,,,,,,,N*2E
$GNGGA,165011.00,,,,,0,00,99.99,,,,,,*7A
$GNGSA,A,1,,,,,,,,,,,,,99.99,99.99,99.99*2E
$GNGSA,A,1,,,,,,,,,,,,,99.99,99.99,99.99*2E
$GPGSV,3,1,11,02,,,38,03,,,45,04,,,40,06,,,49*7B
$GPGSV,3,2,11,12,,,44,17,,,42,19,,,44,24,,,39*7F
$GPGSV,3,3,11,28,,,46,46,,,44,51,,,42*71
$GLGSV,2,1,06,65,,,39,66,,,40,79,,,41,81,,,38*64
$GLGSV,2,2,06,82,,,39,88,,,38*68
$GNGLL,,,,,165011.00,V,N*56
$GNRMC,165012.00,V,,,,,,,,,,N*62
$GNVTG,,,,,,,,,N*2E
$GNGGA,165012.00,,,,,0,00,99.99,,,,,,*79
$GNGSA,A,1,,,,,,,,,,,,,99.99,99.99,99.99*2E
$GNGSA,A,1,,,,,,,,,,,,,99.99,99.99,99.99*2E
$GPGSV,3,1,11,02,,,38,03,,,45,04,,,40,06,,,49*7B
$GPGSV,3,2,11,12,,,43,17,,,43,19,,,43,24,,,39*7E
$GPGSV,3,3,11,28,,,46,46,,,45,51,,,42*70
$GLGSV,2,1,06,65,,,39,66,,,38,79,,,41,81,,,37*64
$GLGSV,2,2,06,82,,,40,88,,,37*69
$GNGLL,,,,,165012.00,V,N*55
$GNRMC,165010.51,A,3851.53805,N,07726.28710,W,0.015,,210720,,,A*75
$GNVTG,,T,,M,0.015,N,0.029,K,A*32
$GNGGA,165010.51,3851.53805,N,07726.28710,W,1,06,1.20,92.4,M,-34.6,M,,*4D
$GNGSA,A,3,,,,,,,,,,,,,2.37,1.20,2.05*1E
$GNGSA,A,3,65,82,79,66,88,81,,,,,,,2.37,1.20,2.05*10
$GPGSV,3,1,11,02,,,38,03,,,45,04,,,40,06,,,49*7B
$GPGSV,3,2,11,12,,,44,17,,,43,19,,,43,24,,,40*77
$GPGSV,3,3,11,28,,,47,46,40,211,44,51,35,222,40*70
$GLGSV,2,1,06,65,14,029,40,66,40,095,40,79,31,222,42,81,49,035,39*65
$GLGSV,2,2,06,82,44,313,41,88,10,075,38*65
$GNGLL,3851.53805,N,07726.28710,W,165010.51,A,A*6E
$GNRMC,165011.00,A,3851.53819,N,07726.28706,W,0.056,,210720,,,A*7D
$GNVTG,,T,,M,0.056,N,0.104,K,A*3B
$GNGGA,165011.00,3851.53819,N,07726.28706,W,1,06,1.20,93.2,M,-34.6,M,,*45
$GNGSA,A,3,,,,,,,,,,,,,2.37,1.20,2.05*1E
$GNGSA,A,3,65,82,79,66,88,81,,,,,,,2.37,1.20,2.05*10
$GPGSV,3,1,11,02,,,38,03,,,46,04,,,40,06,,,49*78
$GPGSV,3,2,11,12,,,43,17,,,43,19,,,43,24,,,40*70
$GPGSV,3,3,11,28,,,47,46,40,211,44,51,35,222,40*70
$GLGSV,2,1,06,65,14,029,40,66,40,095,40,79,31,222,42,81,49,035,39*65
$GLGSV,2,2,06,82,44,313,41,88,10,075,38*65
$GNGLL,3851.53819,N,07726.28706,W,165011.00,A,A*61
$GNRMC,165012.00,A,3851.53806,N,07726.28720,W,0.020,,210720,,,A*75
$GNVTG,,T,,M,0.020,N,0.038,K,A*34
$GNGGA,165012.00,3851.53806,N,07726.28720,W,1,06,1.20,93.7,M,-34.6,M,,*49
$GNGSA,A,3,,,,,,,,,,,,,2.37,1.20,2.05*1E
$GNGSA,A,3,65,82,79,66,88,81,,,,,,,2.37,1.20,2.05*10
$GPGSV,3,1,11,02,,,40,03,,,46,04,,,40,06,,,49*77
$GPGSV,3,2,11,12,,,43,17,,,43,19,,,43,24,,,40*70
$GPGSV,3,3,11,28,,,47,46,40,211,44,51,35,222,41*71
$GLGSV,2,1,06,65,14,029,40,66,40,095,39,79,31,222,41,81,49,035,39*68
$GLGSV,2,2,06,82,44,313,42,88,10,075,38*66
$GNGLL,3851.53806,N,07726.28720,W,165012.00,A,A*68
$GNRMC,165013.00,A,3851.53783,N,07726.28713,W,0.046,,210720,,,A*76
$GNVTG,,T,,M,0.046,N,0.086,K,A*31
$GNGGA,165013.00,3851.53783,N,07726.28713,W,1,06,1.20,93.6,M,-34.6,M,,*4B
$GNGSA,A,3,,,,,,,,,,,,,2.37,1.20,2.05*1E
$GNGSA,A,3,65,82,79,66,88,81,,,,,,,2.37,1.20,2.05*10
$GPGSV,3,1,11,02,,,39,03,,,45,04,,,40,06,74,340,48*4F
$GPGSV,3,2,11,12,,,43,17,,,43,19,,,42,24,,,40*71
$GPGSV,3,3,11,28,,,45,46,40,211,44,51,35,222,41*73
$GLGSV,2,1,06,65,14,029,40,66,40,095,39,79,31,222,41,81,49,035,39*68
$GLGSV,2,2,06,82,44,313,36,88,10,075,38*65
$GNGLL,3851.53783,N,07726.28713,W,165013.00,A,A*6B
$GNRMC,165014.00,A,3851.53771,N,07726.28713,W,0.061,,210720,,,A*79
$GNVTG,,T,,M,0.061,N,0.113,K,A*39
$GNGGA,165014.00,3851.53771,N,07726.28713,W,1,06,1.20,93.7,M,-34.6,M,,*40
$GNGSA,A,3,,,,,,,,,,,,,2.37,1.20,2.05*1E
$GNGSA,A,3,65,82,79,66,88,81,,,,,,,2.37,1.20,2.05*10
$GPGSV,3,1,11,02,,,38,03,,,45,04,,,40,06,74,340,48*4E
$GPGSV,3,2,11,12,,,45,17,,,42,19,,,42,24,,,40*76
$GPGSV,3,3,11,28,,,44,46,40,211,43,51,35,222,41*75
$GLGSV,2,1,06,65,14,029,42,66,40,095,40,79,31,222,42,81,49,035,39*67
$GLGSV,2,2,06,82,44,313,41,88,10,075,38*65
$GNGLL,3851.53771,N,07726.28713,W,165014.00,A,A*61
$GNRMC,165015.00,A,3851.53771,N,07726.28721,W,0.052,,210720,,,A*79
$GNVTG,,T,,M,0.052,N,0.096,K,A*35
$GNGGA,165015.00,3851.53771,N,07726.28721,W,1,06,1.20,93.7,M,-34.6,M,,*40
$GNGSA,A,3,,,,,,,,,,,,,2.37,1.20,2.05*1E
$GNGSA,A,3,65,82,79,66,88,81,,,,,,,2.37,1.20,2.05*10
$GPGSV,3,1,11,02,,,40,03,,,45,04,,,41,06,74,340,48*40
$GPGSV,3,2,11,12,,,44,17,,,43,19,,,42,24,,,40*76
$GPGSV,3,3,11,28,,,45,46,40,211,43,51,35,222,41*74
$GLGSV,2,1,07,65,14,029,42,66,40,095,38,79,31,222,42,81,49,035,39*69
$GLGSV,2,2,07,82,44,313,41,88,10,075,38,,,,36*61
$GNGLL,3851.53771,N,07726.28721,W,165015.00,A,A*61
$GNRMC,165016.00,A,3851.53769,N,07726.28717,W,0.029,,210720,,,A*7A
$GNVTG,,T,,M,0.029,N,0.053,K,A*30
$GNGGA,165016.00,3851.53769,N,07726.28717,W,1,06,1.20,94.0,M,-34.6,M,,*4F
$GNGSA,A,3,,,,,,,,,,,,,2.37,1.20,2.04*1F
$GNGSA,A,3,65,82,79,66,88,81,,,,,,,2.37,1.20,2.04*11
$GPGSV,3,1,11,02,,,41,03,,,45,04,,,41,06,74,340,48*41
$GPGSV,3,2,11,12,,,43,17,,,44,19,,,43,24,,,40*77
$GPGSV,3,3,11,28,,,46,46,40,211,44,51,35,222,41*70
$GLGSV,2,1,07,65,14,029,41,66,40,095,40,79,31,222,42,81,49,035,37*6B
$GLGSV,2,2,07,82,44,313,42,88,10,075,39,,,,38*6D
$GNGLL,3851.53769,N,07726.28717,W,165016.00,A,A*6E
$GNRMC,165017.00,A,3851.53759,N,07726.28707,W,0.047,,210720,,,A*71
$GNVTG,,T,,M,0.047,N,0.086,K,A*30
$GNGGA,165017.00,3851.53759,N,07726.28707,W,1,06,1.20,94.1,M,-34.6,M,,*4D
$GNGSA,A,3,,,,,,,,,,,,,2.37,1.20,2.04*1F
$GNGSA,A,3,65,82,79,66,88,81,,,,,,,2.37,1.20,2.04*11
$GPGSV,3,1,11,02,,,38,03,,,46,04,,,42,06,74,340,47*40
$GPGSV,3,2,11,12,,,45,17,,,43,19,,,44,24,,,40*71
$GPGSV,3,3,11,28,,,45,46,40,211,43,51,35,222,41*74
$GLGSV,2,1,07,65,14,029,40,66,40,095,39,79,31,222,42,81,49,035,37*64
$GLGSV,2,2,07,82,44,313,42,88,10,075,38,,,,38*6C
$GNGLL,3851.53759,N,07726.28707,W,165017.00,A,A*6D
$GNRMC,165018.00,A,3851.53749,N,07726.28707,W,0.056,,210720,,,A*7F
$GNVTG,,T,,M,0.056,N,0.105,K,A*3A
$GNGGA,165018.00,3851.53749,N,07726.28707,W,1,06,1.20,94.0,M,-34.6,M,,*42
$GNGSA,A,3,,,,,,,,,,,,,2.37,1.20,2.04*1F
$GNGSA,A,3,65,82,79,66,88,81,,,,,,,2.37,1.20,2.04*11
$GPGSV,3,1,11,02,,,38,03,,,46,04,,,42,06,74,340,47*40
$GPGSV,3,2,11,12,,,44,17,,,44,19,,,42,24,,,39*7F
$GPGSV,3,3,11,28,,,45,46,40,211,43,51,35,222,42*77
$GLGSV,2,1,07,65,14,029,40,66,40,095,38,79,31,222,41,81,49,035,38*69
$GLGSV,2,2,07,82,44,313,42,88,10,075,39,,,,38*6D
$GNGLL,3851.53749,N,07726.28707,W,165018.00,A,A*63
$GNRMC,165019.00,A,3851.53737,N,07726.28698,W,0.008,,210720,,,A*7B
$GNVTG,,T,,M,0.008,N,0.014,K,A*30
$GNGGA,165019.00,3851.53737,N,07726.28698,W,1,12,0.71,94.7,M,-34.6,M,,*4A
$GNGSA,A,3,03,04,06,12,28,02,17,19,24,,,,1.16,0.71,0.92*15
$GNGSA,A,3,65,82,79,66,88,81,,,,,,,1.16,0.71,0.92*19
$GPGSV,3,1,11,02,48,267,38,03,09,037,46,04,08,074,42,06,74,340,47*79
$GPGSV,3,2,11,12,31,313,45,17,51,088,43,19,67,058,42,24,08,264,39*7A
$GPGSV,3,3,11,28,20,161,45,46,40,211,43,51,35,222,41*40
$GLGSV,2,1,07,65,14,029,38,66,40,095,38,79,31,222,40,81,49,035,37*68
$GLGSV,2,2,07,82,44,313,42,88,10,075,39,,,,38*6D
$GNGLL,3851.53737,N,07726.28698,W,165019.00,A,A*6C
$GNRMC,165020.00,A,3851.53730,N,07726.28702,W,0.025,,210720,,,A*7B
$GNVTG,,T,,M,0.025,N,0.046,K,A*38
$GNGGA,165020.00,3851.53730,N,07726.28702,W,1,12,0.71,94.7,M,-34.6,M,,*45
$GNGSA,A,3,03,04,06,12,28,02,17,19,24,,,,1.16,0.71,0.92*15
$GNGSA,A,3,65,82,79,66,88,81,,,,,,,1.16,0.71,0.92*19
$GPGSV,3,1,11,02,48,267,38,03,09,037,47,04,08,074,43,06,74,340,48*76
$GPGSV,3,2,11,12,31,313,44,17,51,088,43,19,67,058,44,24,08,264,39*7D
$GPGSV,3,3,11,28,20,161,46,46,40,211,44,51,35,222,42*47
$GLGSV,2,1,07,65,14,029,38,66,40,095,37,79,31,222,39,81,49,035,35*6B
$GLGSV,2,2,07,82,44,313,40,88,10,075,37,,,,37*6E
$GNGLL,3851.53730,N,07726.28702,W,165020.00,A,A*63
$GNRMC,165021.00,A,3851.53721,N,07726.28702,W,0.019,,210720,,,A*75
$GNVTG,,T,,M,0.019,N,0.035,K,A*33
$GNGGA,165021.00,3851.53721,N,07726.28702,W,1,12,0.71,94.6,M,-34.6,M,,*45
$GNGSA,A,3,03,04,06,12,28,02,17,19,24,,,,1.16,0.71,0.92*15
$GNGSA,A,3,65,82,79,66,88,81,,,,,,,1.16,0.71,0.92*19
$GPGSV,3,1,11,02,48,267,38,03,09,037,47,04,08,074,43,06,74,340,48*76
$GPGSV,3,2,11,12,31,313,45,17,51,088,44,19,67,058,43,24,08,264,39*7C
$GPGSV,3,3,11,28,20,161,46,46,40,211,44,51,35,222,42*47
$GLGSV,2,1,07,65,14,029,40,66,40,095,39,79,31,222,41,81,49,035,36*66
$GLGSV,2,2,07,82,44,313,41,88,10,075,40,,,,38*60
$GNGLL,3851.53721,N,07726.28702,W,165021.00,A,A*62
$GNRMC,165022.00,A,3851.53715,N,07726.28703,W,0.010,,210720,,,A*79
$GNVTG,,T,,M,0.010,N,0.019,K,A*34
$GNGGA,165022.00,3851.53715,N,07726.28703,W,1,12,0.71,94.6,M,-34.6,M,,*40
$GNGSA,A,3,03,04,06,12,28,02,17,19,24,,,,1.16,0.71,0.92*15
$GNGSA,A,3,65,82,79,66,88,81,,,,,,,1.16,0.71,0.92*19
$GPGSV,3,1,11,02,48,267,38,03,09,037,47,04,08,074,42,06,74,340,48*77
$GPGSV,3,2,11,12,31,313,45,17,51,088,44,19,67,058,43,24,08,264,39*7C
$GPGSV,3,3,11,28,20,161,46,46,40,211,44,51,35,222,42*47
$GLGSV,2,1,07,65,14,029,39,66,40,095,39,79,31,222,41,81,49,035,35*6B
$GLGSV,2,2,07,82,44,313,41,88,10,075,40,,,,38*60
$GNGLL,3851.53715,N,07726.28703,W,165022.00,A,A*67
$GNRMC,165023.00,A,3851.53712,N,07726.28706,W,0.020,,210720,,,A*79
$GNVTG,,T,,M,0.020,N,0.037,K,A*3B
$GNGGA,165023.00,3851.53712,N,07726.28706,W,1,12,0.71,94.7,M,-34.6,M,,*42
$GNGSA,A,3,03,04,06,12,28,02,17,19,24,,,,1.16,0.71,0.92*15
$GNGSA,A,3,65,82,79,66,88,81,,,,,,,1.16,0.71,0.92*19
$GPGSV,3,1,11,02,48,267,40,03,09,037,47,04,08,074,42,06,74,340,48*78
$GPGSV,3,2,11,12,31,313,45,17,51,088,44,19,67,058,44,24,08,264,39*7B
$GPGSV,3,3,11,28,20,161,46,46,40,211,44,51,35,222,42*47
$GLGSV,2,1,07,65,14,029,39,66,40,095,38,79,31,222,40,81,49,035,35*6B
$GLGSV,2,2,07,82,44,313,41,88,10,075,39,,,,38*6E
$GNGLL,3851.53712,N,07726.28706,W,165023.00,A,A*64
$GNRMC,165024.00,A,3851.53710,N,07726.28705,W,0.006,,210720,,,A*7B
$GNVTG,,T,,M,0.006,N,0.011,K,A*3B
$GNGGA,165024.00,3851.53710,N,07726.28705,W,1,12,0.71,94.7,M,-34.6,M,,*44
$GNGSA,A,3,03,04,06,12,28,02,17,19,24,,,,1.16,0.71,0.92*15
$GNGSA,A,3,65,82,79,66,88,81,,,,,,,1.16,0.71,0.92*19
$GPGSV,3,1,11,02,48,267,40,03,09,037,47,04,08,074,42,06,74,340,48*78
$GPGSV,3,2,11,12,31,313,45,17,51,088,44,19,67,058,44,24,08,264,40*75
$GPGSV,3,3,11,28,20,161,46,46,40,211,44,51,35,222,42*47
$GLGSV,2,1,07,65,14,029,38,66,40,095,38,79,31,222,40,81,49,035,35*6A
$GLGSV,2,2,07,82,44,313,39,88,10,075,39,,,,38*61
$GNGLL,3851.53710,N,07726.28705,W,165024.00,A,A*62
$GNRMC,165025.00,A,3851.53706,N,07726.28699,W,0.011,,210720,,,A*7F
$GNVTG,,T,,M,0.011,N,0.020,K,A*3F
$GNGGA,165025.00,3851.53706,N,07726.28699,W,1,12,0.71,94.8,M,-34.6,M,,*49
$GNGSA,A,3,03,04,06,12,28,02,17,19,24,,,,1.16,0.71,0.92*15
$GNGSA,A,3,65,82,79,66,88,81,,,,,,,1.16,0.71,0.92*19
$GPGSV,3,1,11,02,48,267,40,03,09,037,47,04,08,074,42,06,74,340,48*78
$GPGSV,3,2,11,12,31,313,45,17,51,088,44,19,67,058,44,24,08,264,40*75
$GPGSV,3,3,11,28,20,161,46,46,40,211,44,51,35,222,42*47
$GLGSV,2,1,07,65,14,029,37,66,40,095,40,79,30,222,40,81,49,035,34*6A
$GLGSV,2,2,07,82,44,313,41,88,10,075,39,,,,39*6F
$GNGLL,3851.53706,N,07726.28699,W,165025.00,A,A*60
$GNRMC,165026.00,A,3851.53703,N,07726.28695,W,0.006,,210720,,,A*73
$GNVTG,,T,,M,0.006,N,0.010,K,A*3A
$GNGGA,165026.00,3851.53703,N,07726.28695,W,1,12,0.71,94.8,M,-34.6,M,,*43
$GNGSA,A,3,03,04,06,12,28,02,17,19,24,,,,1.16,0.71,0.92*15
$GNGSA,A,3,65,82,79,66,88,81,,,,,,,1.16,0.71,0.92*19
$GPGSV,3,1,11,02,48,267,39,03,09,037,46,04,08,074,41,06,74,340,48*74
$GPGSV,3,2,11,12,31,313,45,17,51,088,43,19,67,058,43,24,08,264,39*7B
$GPGSV,3,3,11,28,20,161,45,46,40,211,44,51,35,222,41*47
$GLGSV,2,1,07,65,14,029,38,66,40,095,40,79,30,222,40,81,49,035,35*64
$GLGSV,2,2,07,82,44,313,40,88,10,075,39,,,,39*6E
$GNGLL,3851.53703,N,07726.28695,W,165026.00,A,A*6A
$GNRMC,165027.00,A,3851.53701,N,07726.28689,W,0.015,,210720,,,A*7F
$GNVTG,,T,,M,0.015,N,0.028,K,A*33
$GNGGA,165027.00,3851.53701,N,07726.28689,W,1,12,0.71,94.8,M,-34.6,M,,*4D
$GNGSA,A,3,03,04,06,12,28,02,17,19,24,,,,1.16,0.71,0.92*15
$GNGSA,A,3,65,82,79,66,88,81,,,,,,,1.16,0.71,0.92*19
$GPGSV,3,1,11,02,48,267,40,03,09,037,46,04,08,074,41,06,74,340,47*75
$GPGSV,3,2,11,12,31,313,45,17,51,088,43,19,67,058,43,24,08,264,39*7B
$GPGSV,3,3,11,28,20,161,45,46,40,211,43,51,35,222,41*40
$GLGSV,2,1,07,65,14,029,38,66,40,095,40,79,30,222,40,81,49,035,36*67
$GLGSV,2,2,07,82,44,313,40,88,10,075,39,,,,39*6E
$GNGLL,3851.53701,N,07726.28689,W,165027.00,A,A*64
$GNRMC,165028.00,A,3851.53700,N,07726.28683,W,0.010,,210720,,,A*7E
$GNVTG,,T,,M,0.010,N,0.019,K,A*34
$GNGGA,165028.00,3851.53700,N,07726.28683,W,1,12,0.71,94.8,M,-34.6,M,,*49
$GNGSA,A,3,03,04,06,12,28,02,17,19,24,,,,1.16,0.71,0.92*15
$GNGSA,A,3,65,82,79,66,88,81,,,,,,,1.16,0.71,0.92*19
$GPGSV,3,1,11,02,48,267,40,03,09,037,46,04,08,074,41,06,74,340,48*7A
$GPGSV,3,2,11,12,31,313,45,17,51,088,42,19,67,058,43,24,08,264,39*7A
$GPGSV,3,3,11,28,20,161,45,46,40,211,43,51,35,222,41*40
$GLGSV,2,1,07,65,14,029,38,66,40,095,40,79,30,222,40,81,49,035,35*64
$GLGSV,2,2,07,82,44,313,40,88,10,075,40,,,,39*60
$GNGLL,3851.53700,N,07726.28683,W,165028.00,A,A*60
$GNRMC,165029.00,A,3851.53699,N,07726.28676,W,0.015,,210720,,,A*71
$GNVTG,,T,,M,0.015,N,0.027,K,A*3C
$GNGGA,165029.00,3851.53699,N,07726.28676,W,1,12,0.71,94.8,M,-34.6,M,,*43
$GNGSA,A,3,03,04,06,12,28,02,17,19,24,,,,1.16,0.71,0.92*15
$GNGSA,A,3,65,82,79,66,88,81,,,,,,,1.16,0.71,0.92*19
$GPGSV,3,1,11,02,48,268,40,03,09,037,47,04,08,074,40,06,74,340,48*75
$GPGSV,3,2,11,12,31,313,45,17,51,088,42,19,67,058,43,24,08,264,39*7A
$GPGSV,3,3,11,28,20,161,45,46,40,211,43,51,35,222,41*40
$GLGSV,2,1,07,65,14,029,38,66,40,095,41,79,30,222,40,81,49,035,36*66
$GLGSV,2,2,07,82,44,313,40,88,10,075,40,,,,39*60
$GNGLL,3851.53699,N,07726.28676,W,165029.00,A,A*6A
$GNRMC,165030.00,A,3851.53699,N,07726.28671,W,0.019,,210720,,,A*72
$GNVTG,,T,,M,0.019,N,0.035,K,A*33
$GNGGA,165030.00,3851.53699,N,07726.28671,W,1,12,0.71,94.7,M,-34.6,M,,*43
$GNGSA,A,3,03,04,06,12,28,02,17,19,24,,,,1.16,0.71,0.92*15
$GNGSA,A,3,65,82,79,66,88,81,,,,,,,1.16,0.71,0.92*19
$GPGSV,3,1,11,02,48,268,39,03,09,037,47,04,08,074,40,06,74,340,48*7B
$GPGSV,3,2,11,12,31,313,44,17,51,088,42,19,67,058,43,24,08,264,39*7B
$GPGSV,3,3,11,28,20,161,45,46,40,211,43,51,35,222,42*43
$GLGSV,2,1,07,65,14,029,38,66,40,095,41,79,30,222,41,81,49,035,37*66
$GLGSV,2,2,07,82,44,313,41,88,10,075,40,,,,40*6F
$GNGLL,3851.53699,N,07726.28671,W,165030.00,A,A*65
$GNRMC,165031.00,A,3851.53700,N,07726.28667,W,0.019,,210720,,,A*75
$GNVTG,,T,,M,0.019,N,0.036,K,A*30
$GNGGA,165031.00,3851.53700,N,07726.28667,W,1,12,0.71,94.7,M,-34.6,M,,*44
$GNGSA,A,3,03,04,06,12,28,02,17,19,24,,,,1.16,0.71,0.92*15
$GNGSA,A,3,65,82,79,66,88,81,,,,,,,1.16,0.71,0.92*19
$GPGSV,3,1,11,02,48,268,38,03,09,037,47,04,08,074,40,06,74,340,48*7A
$GPGSV,3,2,11,12,31,313,43,17,51,088,42,19,67,058,42,24,08,264,39*7D
$GPGSV,3,3,11,28,20,161,45,46,40,211,44,51,35,222,41*47
$GLGSV,2,1,07,65,14,029,37,66,40,095,39,79,30,222,38,81,49,035,36*69
$GLGSV,2,2,07,82,44,313,40,88,10,075,38,,,,38*6E
$GNGLL,3851.53700,N,07726.28667,W,165031.00,A,A*62
$GNRMC,165032.00,A,3851.53701,N,07726.28664,W,0.011,,210720,,,A*7C
$GNVTG,,T,,M,0.011,N,0.020,K,A*3F
$GNGGA,165032.00,3851.53701,N,07726.28664,W,1,12,0.71,94.7,M,-34.6,M,,*45
$GNGSA,A,3,03,04,06,12,28,02,17,19,24,,,,1.16,0.71,0.92*15
$GNGSA,A,3,65,82,79,66,88,81,,,,,,,1.16,0.71,0.92*19
$GPGSV,3,1,11,02,48,268,37,03,09,037,47,04,08,074,39,06,74,341,48*7A
$GPGSV,3,2,11,12,31,313,44,17,51,088,42,19,67,058,43,24,08,264,39*7B
$GPGSV,3,3,11,28,20,161,45,46,40,211,44,51,35,222,41*47
$GLGSV,2,1,07,65,14,029,36,66,40,095,39,79,30,222,38,81,49,035,35*6B
$GLGSV,2,2,07,82,44,313,39,88,10,075,38,,,,38*60
$GNGLL,3851.53701,N,07726.28664,W,165032.00,A,A*63
$GNRMC,165033.00,A,3851.53701,N,07726.28661,W,0.002,,210720,,,A*7A
$GNVTG,,T,,M,0.002,N,0.003,K,A*3C
$GNGGA,165033.00,3851.53701,N,07726.28661,W,1,12,0.71,94.7,M,-34.6,M,,*41
$GNGSA,A,3,03,04,06,12,28,02,17,19,24,,,,1.16,0.71,0.92*15
$GNGSA,A,3,65,82,79,66,88,81,,,,,,,1.16,0.71,0.92*19
$GPGSV,3,1,11,02,48,268,36,03,09,037,47,04,08,074,39,06,74,341,48*7B
$GPGSV,3,2,11,12,31,313,44,17,51,088,42,19,67,058,43,24,08,264,39*7B
$GPGSV,3,3,11,28,20,161,45,46,40,211,43,51,35,222,41*40
$GLGSV,2,1,07,65,14,029,38,66,40,095,41,79,30,222,41,81,49,035,36*67
$GLGSV,2,2,07,82,44,313,40,88,10,075,40,,,,41*6F
$GNGLL,3851.53701,N,07726.28661,W,165033.00,A,A*67
$GNRMC,165034.00,A,3851.53701,N,07726.28658,W,0.014,,210720,,,A*70
$GNVTG,,T,,M,0.014,N,0.026,K,A*3C
$GNGGA,165034.00,3851.53701,N,07726.28658,W,1,12,0.71,94.8,M,-34.6,M,,*43
$GNGSA,A,3,03,04,06,12,28,02,17,19,24,,,,1.16,0.71,0.92*15
$GNGSA,A,3,65,82,79,66,88,81,,,,,,,1.16,0.71,0.92*19
$GPGSV,3,1,11,02,48,268,36,03,09,037,47,04,08,074,38,06,74,341,48*7A
$GPGSV,3,2,11,12,31,313,44,17,51,088,42,19,67,058,43,24,08,264,39*7B
$GPGSV,3,3,11,28,20,161,45,46,40,211,43,51,35,222,41*40
$GLGSV,2,1,07,65,14,029,37,66,40,095,39,79,30,222,40,81,49,035,36*66
$GLGSV,2,2,07,82,44,313,38,88,10,075,40,,,,41*60
$GNGLL,3851.53701,N,07726.28658,W,165034.00,A,A*6A
$GNRMC,165035.00,A,3851.53702,N,07726.28654,W,0.024,,210720,,,A*7D
$GNVTG,,T,,M,0.024,N,0.045,K,A*3A
$GNGGA,165035.00,3851.53702,N,07726.28654,W,1,12,0.71,94.8,M,-34.6,M,,*4D
$GNGSA,A,3,03,04,06,12,28,02,17,19,24,,,,1.16,0.71,0.92*15
$GNGSA,A,3,65,82,79,66,88,81,,,,,,,1.16,0.71,0.92*19
$GPGSV,3,1,11,02,48,268,36,03,09,037,47,04,08,074,38,06,74,341,48*7A
$GPGSV,3,2,11,12,31,313,44,17,51,088,42,19,67,058,43,24,08,264,39*7B
$GPGSV,3,3,11,28,20,161,45,46,40,211,43,51,35,222,41*40
$GLGSV,2,1,07,65,14,029,37,66,40,095,40,79,30,222,40,81,49,035,35*6B
$GLGSV,2,2,07,82,44,313,39,88,10,075,40,,,,41*61
$GNGLL,3851.53702,N,07726.28654,W,165035.00,A,A*64
$GNRMC,165036.00,A,3851.53703,N,07726.28651,W,0.017,,210720,,,A*7A
$GNVTG,,T,,M,0.017,N,0.031,K,A*39
$GNGGA,165036.00,3851.53703,N,07726.28651,W,1,12,0.71,94.8,M,-34.6,M,,*4A
$GNGSA,A,3,03,04,06,12,28,02,17,19,24,,,,1.16,0.71,0.92*15
$GNGSA,A,3,65,82,79,66,88,81,,,,,,,1.16,0.71,0.92*19
$GPGSV,3,1,11,02,48,268,36,03,09,037,47,04,08,074,38,06,74,341,48*7A
$GPGSV,3,2,11,12,31,313,44,17,51,088,42,19,67,058,42,24,08,264,38*7B
$GPGSV,3,3,11,28,20,161,45,46,40,211,43,51,35,222,41*40
$GLGSV,2,1,07,65,14,029,36,66,40,095,38,79,30,222,38,81,49,035,35*6A
$GLGSV,2,2,07,82,44,313,38,88,10,075,39,,,,39*61
$GNGLL,3851.53703,N,07726.28651,W,165036.00,A,A*63
$GNRMC,165037.00,A,3851.53703,N,07726.28647,W,0.022,,210720,,,A*7A
$GNVTG,,T,,M,0.022,N,0.042,K,A*3B
$GNGGA,165037.00,3851.53703,N,07726.28647,W,1,12,0.71,94.9,M,-34.6,M,,*4D
$GNGSA,A,3,03,04,06,12,28,02,17,19,24,,,,1.16,0.71,0.92*15
$GNGSA,A,3,65,82,79,66,88,81,,,,,,,1.16,0.71,0.92*19
$GPGSV,3,1,11,02,48,268,37,03,09,037,47,04,08,074,38,06,74,341,48*7B
$GPGSV,3,2,11,12,31,313,44,17,51,088,42,19,67,058,42,24,08,264,38*7B
$GPGSV,3,3,11,28,20,161,45,46,40,211,43,51,35,222,42*43
$GLGSV,2,1,07,65,14,029,34,66,40,095,39,79,30,222,38,81,49,035,34*68
$GLGSV,2,2,07,82,44,313,38,88,10,075,38,,,,39*60
$GNGLL,3851.53703,N,07726.28647,W,165037.00,A,A*65
$GNRMC,165038.00,A,3851.53703,N,07726.28645,W,0.016,,210720,,,A*70
$GNVTG,,T,,M,0.016,N,0.029,K,A*31
$GNGGA,165038.00,3851.53703,N,07726.28645,W,1,12,0.71,94.9,M,-34.6,M,,*40
$GNGSA,A,3,03,04,06,12,28,02,17,19,24,,,,1.16,0.71,0.92*15
$GNGSA,A,3,65,82,79,66,88,81,,,,,,,1.16,0.71,0.92*19
$GPGSV,3,1,11,02,48,268,37,03,09,037,48,04,08,074,37,06,74,341,48*7B
$GPGSV,3,2,11,12,31,313,44,17,51,088,42,19,67,058,42,24,08,264,38*7B
$GPGSV,3,3,11,28,20,161,45,46,40,211,43,51,35,222,41*40
$GLGSV,2,1,07,65,14,029,34,66,40,095,39,79,30,222,38,81,49,035,34*68
$GLGSV,2,2,07,82,44,313,38,88,10,075,38,,,,39*60
$GNGLL,3851.53703,N,07726.28645,W,165038.00,A,A*68
$GNRMC,165039.00,A,3851.53709,N,07726.28644,W,0.014,,210720,,,A*78
$GNVTG,,T,,M,0.014,N,0.027,K,A*3D
$GNGGA,165039.00,3851.53709,N,07726.28644,W,1,12,0.65,95.0,M,-34.6,M,,*47
$GNGSA,A,3,03,04,06,12,28,02,17,19,24,,,,1.12,0.65,0.91*17
$GNGSA,A,3,67,65,82,79,66,88,81,,,,,,1.12,0.65,0.91*1A
$GPGSV,3,1,11,02,48,268,37,03,09,037,47,04,08,074,38,06,74,341,47*74
$GPGSV,3,2,11,12,31,313,44,17,51,088,42,19,67,058,42,24,08,264,37*74
$GPGSV,3,3,11,28,20,161,45,46,40,211,43,51,35,222,41*40
$GLGSV,2,1,07,65,14,029,34,66,40,095,39,67,19,152,39,79,30,222,38*68
$GLGSV,2,2,07,81,49,035,34,82,44,313,38,88,10,075,38*5F
$GNGLL,3851.53709,N,07726.28644,W,165039.00,A,A*62
$GNRMC,165040.00,A,3851.53714,N,07726.28642,W,0.013,,210720,,,A*7B
$GNVTG,,T,,M,0.013,N,0.024,K,A*39
$GNGGA,165040.00,3851.53714,N,07726.28642,W,1,12,0.65,95.1,M,-34.6,M,,*42
$GNGSA,A,3,03,04,06,12,28,02,17,19,24,,,,1.12,0.65,0.91*17
$GNGSA,A,3,67,65,82,79,66,88,81,,,,,,1.12,0.65,0.91*1A
$GPGSV,3,1,11,02,48,268,38,03,09,037,47,04,08,074,38,06,74,341,47*7B
$GPGSV,3,2,11,12,31,313,44,17,51,088,42,19,67,058,41,24,08,264,38*78
$GPGSV,3,3,11,28,20,161,45,46,40,211,43,51,35,222,42*43
$GLGSV,2,1,07,65,14,029,32,66,40,095,39,67,19,152,39,79,30,222,38*6E
$GLGSV,2,2,07,81,49,035,34,82,44,313,38,88,10,075,38*5F
$GNGLL,3851.53714,N,07726.28642,W,165040.00,A,A*66
$GNRMC,165041.00,A,3851.53720,N,07726.28641,W,0.016,,210720,,,A*7B
$GNVTG,,T,,M,0.016,N,0.029,K,A*31
$GNGGA,165041.00,3851.53720,N,07726.28641,W,1,12,0.65,95.2,M,-34.6,M,,*44
$GNGSA,A,3,03,04,06,12,28,02,17,19,24,,,,1.12,0.65,0.91*17
$GNGSA,A,3,67,65,82,79,66,88,81,,,,,,1.12,0.65,0.91*1A
$GPGSV,3,1,11,02,48,268,38,03,09,037,47,04,08,074,38,06,74,341,47*7B
$GPGSV,3,2,11,12,31,313,44,17,51,088,42,19,67,058,41,24,08,264,38*78
$GPGSV,3,3,11,28,20,161,45,46,40,211,43,51,35,222,41*40
$GLGSV,2,1,07,65,14,029,36,66,40,095,39,67,19,152,40,79,30,222,38*64
$GLGSV,2,2,07,81,49,035,34,82,44,313,38,88,10,075,39*5E
$GNGLL,3851.53720,N,07726.28641,W,165041.00,A,A*63
$GNRMC,165042.00,A,3851.53725,N,07726.28641,W,0.020,,210720,,,A*78
$GNVTG,,T,,M,0.020,N,0.037,K,A*3B
$GNGGA,165042.00,3851.53725,N,07726.28641,W,1,12,0.65,95.4,M,-34.6,M,,*44
$GNGSA,A,3,03,04,06,12,28,02,17,19,24,,,,1.12,0.65,0.91*17
$GNGSA,A,3,67,65,82,79,66,88,81,,,,,,1.12,0.65,0.91*1A
$GPGSV,3,1,11,02,48,268,38,03,09,037,47,04,08,074,39,06,74,341,47*7A
$GPGSV,3,2,11,12,31,313,44,17,51,088,42,19,67,058,42,24,08,264,38*7B
$GPGSV,3,3,11,28,20,161,45,46,40,211,43,51,35,222,41*40
$GLGSV,2,1,07,65,14,029,32,66,40,095,39,67,19,152,40,79,30,222,38*60
$GLGSV,2,2,07,81,49,035,34,82,44,313,38,88,10,075,40*50
$GNGLL,3851.53725,N,07726.28641,W,165042.00,A,A*65
$GNRMC,165043.00,A,3851.53729,N,07726.28639,W,0.029,,210720,,,A*73
$GNVTG,,T,,M,0.029,N,0.054,K,A*37
$GNGGA,165043.00,3851.53729,N,07726.28639,W,1,12,0.65,95.5,M,-34.6,M,,*47
$GNGSA,A,3,03,04,06,12,28,02,17,19,24,,,,1.12,0.65,0.91*17
$GNGSA,A,3,67,65,82,79,66,88,81,,,,,,1.12,0.65,0.91*1A
$GPGSV,3,1,11,02,48,268,38,03,09,037,47,04,08,074,39,06,74,341,47*7A
$GPGSV,3,2,11,12,31,313,44,17,51,088,42,19,67,058,42,24,08,264,39*7A
$GPGSV,3,3,11,28,20,161,45,46,40,211,43,51,35,222,41*40
$GLGSV,2,1,07,65,14,029,35,66,40,095,38,67,19,152,40,79,30,222,38*66
$GLGSV,2,2,07,81,49,035,34,82,44,313,37,88,10,075,39*51
$GNGLL,3851.53729,N,07726.28639,W,165043.00,A,A*67
$GNRMC,165044.00,A,3851.53733,N,07726.28639,W,0.024,,210720,,,A*72
$GNVTG,,T,,M,0.024,N,0.044,K,A*3B
$GNGGA,165044.00,3851.53733,N,07726.28639,W,1,12,0.65,95.6,M,-34.6,M,,*48
$GNGSA,A,3,03,04,06,12,28,02,17,19,24,,,,1.12,0.65,0.91*17
$GNGSA,A,3,67,65,82,79,66,88,81,,,,,,1.12,0.65,0.91*1A
$GPGSV,3,1,11,02,48,268,37,03,09,037,48,04,08,074,39,06,74,341,47*7A
$GPGSV,3,2,11,12,31,313,44,17,51,088,42,19,67,058,42,24,08,264,39*7A
$GPGSV,3,3,11,28,20,161,45,46,40,211,43,51,35,222,42*43
$GLGSV,2,1,07,65,14,029,35,66,40,095,38,67,19,152,39,79,30,222,37*67
$GLGSV,2,2,07,81,49,035,35,82,44,313,37,88,10,075,39*50
$GNGLL,3851.53733,N,07726.28639,W,165044.00,A,A*6B
$GNRMC,165045.00,A,3851.53735,N,07726.28639,W,0.012,,210720,,,A*70
$GNVTG,,T,,M,0.012,N,0.023,K,A*3F
$GNGGA,165045.00,3851.53735,N,07726.28639,W,1,12,0.65,95.8,M,-34.6,M,,*41
$GNGSA,A,3,03,04,06,12,28,02,17,19,24,,,,1.12,0.65,0.91*17
$GNGSA,A,3,67,65,82,79,66,88,81,,,,,,1.12,0.65,0.91*1A
$GPGSV,3,1,11,02,48,268,36,03,09,037,49,04,08,074,39,06,74,341,47*7A
$GPGSV,3,2,11,12,31,313,44,17,51,088,43,19,67,058,42,24,08,264,39*7B
$GPGSV,3,3,11,28,20,161,45,46,40,211,44,51,35,222,41*47
$GLGSV,2,1,07,65,14,029,35,66,40,095,38,67,19,152,39,79,30,222,38*68
$GLGSV,2,2,07,81,49,035,35,82,44,313,38,88,10,075,39*5F
$GNGLL,3851.53735,N,07726.28639,W,165045.00,A,A*6C
$GNRMC,165046.00,A,3851.53738,N,07726.28641,W,0.027,,210720,,,A*77
$GNVTG,,T,,M,0.027,N,0.049,K,A*35
$GNGGA,165046.00,3851.53738,N,07726.28641,W,1,12,0.65,95.9,M,-34.6,M,,*41
$GNGSA,A,3,03,04,06,12,28,02,17,19,24,,,,1.12,0.65,0.91*17
$GNGSA,A,3,67,65,82,79,66,88,81,,,,,,1.12,0.65,0.91*1A
$GPGSV,3,1,11,02,48,268,36,03,09,037,47,04,08,074,39,06,74,341,47*74
$GPGSV,3,2,11,12,31,313,43,17,51,088,43,19,67,058,42,24,08,264,39*7C
$GPGSV,3,3,11,28,20,161,45,46,40,211,43,51,35,222,41*40
$GLGSV,2,1,07,65,14,029,32,66,40,095,38,67,19,152,39,79,30,222,38*6F
$GLGSV,2,2,07,81,49,035,36,82,44,313,38,88,10,075,39*5C
$GNGLL,3851.53738,N,07726.28641,W,165046.00,A,A*6D
$GNRMC,165047.00,A,3851.53740,N,07726.28643,W,0.009,,210720,,,A*77
$GNVTG,,T,,M,0.009,N,0.017,K,A*32
$GNGGA,165047.00,3851.53740,N,07726.28643,W,1,12,0.65,95.9,M,-34.6,M,,*4D
$GNGSA,A,3,03,04,06,12,28,02,17,19,24,,,,1.12,0.65,0.91*17
$GNGSA,A,3,67,65,82,79,66,88,81,,,,,,1.12,0.65,0.91*1A
$GPGSV,3,1,11,02,48,268,36,03,09,037,48,04,08,074,39,06,74,341,47*7B
$GPGSV,3,2,11,12,31,313,43,17,51,088,43,19,67,058,42,24,08,264,40*72
$GPGSV,3,3,11,28,20,161,45,46,40,211,44,51,35,222,42*44
$GLGSV,2,1,07,65,14,029,33,66,40,095,38,67,19,152,38,79,30,222,38*6F
$GLGSV,2,2,07,81,49,035,37,82,44,313,39,88,10,075,39*5C
$GNGLL,3851.53740,N,07726.28643,W,165047.00,A,A*61
$GNRMC,165048.00,A,3851.53742,N,07726.28646,W,0.017,,210720,,,A*70
$GNVTG,,T,,M,0.017,N,0.031,K,A*39
$GNGGA,165048.00,3851.53742,N,07726.28646,W,1,12,0.65,95.9,M,-34.6,M,,*45
$GNGSA,A,3,03,04,06,12,28,02,17,19,24,,,,1.12,0.65,0.91*17
$GNGSA,A,3,67,65,82,79,66,88,81,,,,,,1.12,0.65,0.91*1A
$GPGSV,3,1,11,02,48,268,37,03,09,037,49,04,08,074,39,06,74,341,47*7B
$GPGSV,3,2,11,12,31,313,43,17,51,088,43,19,67,058,42,24,08,264,40*72
$GPGSV,3,3,11,28,20,161,45,46,40,211,43,51,35,222,41*40
$GLGSV,2,1,07,65,14,029,34,66,40,095,40,67,19,152,40,79,30,222,40*67
$GLGSV,2,2,07,81,49,035,39,82,44,313,40,88,10,075,40*52
$GNGLL,3851.53742,N,07726.28646,W,165048.00,A,A*69
$GNRMC,165049.00,A,3851.53744,N,07726.28648,W,0.028,,210720,,,A*75
$GNVTG,,T,,M,0.028,N,0.052,K,A*30
$GNGGA,165049.00,3851.53744,N,07726.28648,W,1,12,0.65,96.0,M,-34.6,M,,*46
$GNGSA,A,3,03,04,06,12,28,02,17,19,24,,,,1.12,0.65,0.91*17
$GNGSA,A,3,67,65,82,79,66,88,81,,,,,,1.12,0.65,0.91*1A
$GPGSV,3,1,11,02,48,268,37,03,09,037,48,04,08,074,39,06,74,341,47*7A
$GPGSV,3,2,11,12,31,313,43,17,51,088,43,19,67,058,42,24,08,264,40*72
$GPGSV,3,3,11,28,20,161,45,46,40,211,43,51,35,222,41*40
$GLGSV,2,1,07,65,14,029,33,66,40,095,38,67,19,152,38,79,30,222,38*6F
$GLGSV,2,2,07,81,49,035,38,82,44,313,39,88,10,075,39*53
$GNGLL,3851.53744,N,07726.28648,W,165049.00,A,A*60
$GNRMC,165050.00,A,3851.53746,N,07726.28650,W,0.035,,210720,,,A*7A
$GNVTG,,T,,M,0.035,N,0.065,K,A*38
$GNGGA,165050.00,3851.53746,N,07726.28650,W,1,12,0.65,96.0,M,-34.6,M,,*45
$GNGSA,A,3,03,04,06,12,28,02,17,19,24,,,,1.12,0.65,0.91*17
$GNGSA,A,3,67,65,82,79,66,88,81,,,,,,1.12,0.65,0.91*1A
$GPGSV,3,1,11,02,48,268,38,03,09,037,49,04,08,074,39,06,74,341,47*74
$GPGSV,3,2,11,12,31,313,43,17,51,088,43,19,67,058,42,24,08,264,40*72
$GPGSV,3,3,11,28,20,161,45,46,40,211,43,51,35,222,41*40
$GLGSV,2,1,07,65,14,029,33,66,40,095,38,67,19,152,38,79,30,222,38*6F
$GLGSV,2,2,07,81,49,035,38,82,44,313,39,88,10,075,39*53
$GNGLL,3851.53746,N,07726.28650,W,165050.00,A,A*63
$GNRMC,165051.00,A,3851.53749,N,07726.28652,W,0.032,,210720,,,A*71
$GNVTG,,T,,M,0.032,N,0.060,K,A*3A
$GNGGA,165051.00,3851.53749,N,07726.28652,W,1,12,0.65,96.0,M,-34.6,M,,*49
$GNGSA,A,3,03,04,06,12,28,02,17,19,24,,,,1.12,0.65,0.91*17
$GNGSA,A,3,67,65,82,79,66,88,81,,,,,,1.12,0.65,0.91*1A
$GPGSV,3,1,11,02,48,268,38,03,09,037,48,04,08,074,39,06,74,341,47*75
$GPGSV,3,2,11,12,31,313,43,17,51,088,43,19,67,058,42,24,08,264,40*72
$GPGSV,3,3,11,28,20,161,45,46,40,211,43,51,35,222,42*43
$GLGSV,2,1,07,65,14,029,33,66,40,095,39,67,19,152,40,79,30,222,38*61
$GLGSV,2,2,07,81,49,035,39,82,44,313,39,88,10,075,40*5C
$GNGLL,3851.53749,N,07726.28652,W,165051.00,A,A*6F
$GNRMC,165052.00,A,3851.53751,N,07726.28654,W,0.018,,210720,,,A*75
$GNVTG,,T,,M,0.018,N,0.033,K,A*34
$GNGGA,165052.00,3851.53751,N,07726.28654,W,1,12,0.65,96.0,M,-34.6,M,,*45
$GNGSA,A,3,03,04,06,12,28,02,17,19,24,,,,1.12,0.65,0.91*17
$GNGSA,A,3,67,65,82,79,66,88,81,,,,,,1.12,0.65,0.91*1A
$GPGSV,3,1,11,02,48,268,38,03,09,037,48,04,08,074,39,06,74,341,47*75
$GPGSV,3,2,11,12,31,313,43,17,51,088,43,19,67,058,42,24,08,264,40*72
$GPGSV,3,3,11,28,20,161,45,46,40,211,43,51,35,222,41*40
$GLGSV,2,1,07,65,14,029,32,66,40,095,39,67,19,151,40,79,30,222,38*63
$GLGSV,2,2,07,81,49,035,39,82,44,313,39,88,10,075,40*5C
$GNGLL,3851.53751,N,07726.28654,W,165052.00,A,A*63
$GNRMC,165053.00,A,3851.53754,N,07726.28656,W,0.024,,210720,,,A*7C
$GNVTG,,T,,M,0.024,N,0.044,K,A*3B
$GNGGA,165053.00,3851.53754,N,07726.28656,W,1,12,0.65,96.0,M,-34.6,M,,*43
$GNGSA,A,3,03,04,06,12,28,02,17,19,24,,,,1.12,0.65,0.91*17
$GNGSA,A,3,67,65,82,79,66,88,81,,,,,,1.12,0.65,0.91*1A
$GPGSV,3,1,11,02,48,268,38,03,09,037,48,04,08,074,39,06,74,341,47*75
$GPGSV,3,2,11,12,31,313,43,17,51,088,43,19,67,058,42,24,08,264,40*72
$GPGSV,3,3,11,28,20,161,45,46,40,211,43,51,35,222,41*40
$GLGSV,2,1,07,65,14,029,32,66,40,095,39,67,19,151,40,79,30,222,39*62
$GLGSV,2,2,07,81,49,035,39,82,44,313,39,88,10,075,40*5C
$GNGLL,3851.53754,N,07726.28656,W,165053.00,A,A*65
$GNRMC,165054.00,A,3851.53756,N,07726.28658,W,0.025,,210720,,,A*76
$GNVTG,,T,,M,0.025,N,0.046,K,A*38
$GNGGA,165054.00,3851.53756,N,07726.28658,W,1,12,0.65,96.0,M,-34.6,M,,*48
$GNGSA,A,3,03,04,06,12,28,02,17,19,24,,,,1.12,0.65,0.91*17
$GNGSA,A,3,67,65,82,79,66,88,81,,,,,,1.12,0.65,0.91*1A
$GPGSV,3,1,11,02,48,268,38,03,09,037,48,04,08,074,39,06,74,341,47*75
$GPGSV,3,2,11,12,31,313,44,17,51,088,43,19,67,058,42,24,08,264,40*75
$GPGSV,3,3,11,28,20,161,45,46,40,211,43,51,35,222,42*43
$GLGSV,2,1,07,65,14,029,34,66,40,095,40,67,19,151,42,79,30,222,40*66
$GLGSV,2,2,07,81,49,035,41,82,44,313,41,88,10,075,42*5E
$GNGLL,3851.53756,N,07726.28658,W,165054.00,A,A*6E
$GNRMC,165055.00,A,3851.53759,N,07726.28659,W,0.065,,210720,,,A*7D
$GNVTG,,T,,M,0.065,N,0.120,K,A*3D
$GNGGA,165055.00,3851.53759,N,07726.28659,W,1,12,0.65,96.0,M,-34.6,M,,*47
$GNGSA,A,3,03,04,06,12,28,02,17,19,24,,,,1.12,0.65,0.91*17
$GNGSA,A,3,67,65,82,79,66,88,81,,,,,,1.12,0.65,0.91*1A
$GPGSV,3,1,11,02,48,268,37,03,09,037,48,04,08,074,39,06,74,341,47*7A
$GPGSV,3,2,11,12,31,313,43,17,51,088,43,19,67,058,42,24,08,264,40*72
$GPGSV,3,3,11,28,20,161,45,46,21,244,43,51,35,223,42*45
$GLGSV,2,1,07,65,14,029,34,66,40,095,41,67,19,151,42,79,30,222,40*67
$GLGSV,2,2,07,81,49,035,41,82,44,313,41,88,10,075,42*5E
$GNGLL,3851.53759,N,07726.28659,W,165055.00,A,A*61
$GNRMC,165056.00,A,3851.53760,N,07726.28660,W,0.053,,210720,,,A*7B
$GNVTG,,T,,M,0.053,N,0.098,K,A*3A
$GNGGA,165056.00,3851.53760,N,07726.28660,W,1,12,0.65,96.0,M,-34.6,M,,*44
$GNGSA,A,3,03,04,06,12,28,02,17,19,24,,,,1.12,0.65,0.91*17
$GNGSA,A,3,67,65,82,79,66,88,81,,,,,,1.12,0.65,0.91*1A
$GPGSV,3,1,11,02,48,268,37,03,09,037,49,04,08,074,39,06,74,341,48*74
$GPGSV,3,2,11,12,31,313,44,17,51,088,43,19,67,058,42,24,08,264,40*75
$GPGSV,3,3,11,28,20,161,45,46,21,244,43,51,35,223,42*45
$GLGSV,2,1,07,65,14,029,33,66,40,095,41,67,19,151,42,79,30,221,40*63
$GLGSV,2,2,07,81,49,035,40,82,44,313,41,88,10,075,42*5F
$GNGLL,3851.53760,N,07726.28660,W,165056.00,A,A*62
$GNRMC,165057.00,A,3851.53760,N,07726.28662,W,0.027,,210720,,,A*7B
$GNVTG,,T,,M,0.027,N,0.050,K,A*3D
$GNGGA,165057.00,3851.53760,N,07726.28662,W,1,12,0.65,95.9,M,-34.6,M,,*4D
$GNGSA,A,3,03,04,06,12,28,02,17,19,24,,,,1.12,0.65,0.91*17
$GNGSA,A,3,67,65,82,79,66,88,81,,,,,,1.12,0.65,0.91*1A
$GPGSV,3,1,11,02,48,268,37,03,09,037,49,04,08,074,39,06,74,341,48*74
$GPGSV,3,2,11,12,31,313,44,17,51,088,43,19,67,058,41,24,08,264,40*76
$GPGSV,3,3,11,28,20,161,45,46,21,244,43,51,35,223,42*45
$GLGSV,2,1,08,65,14,029,34,66,40,095,41,67,19,151,42,73,01,343,*62
$GLGSV,2,2,08,79,30,221,40,81,49,035,39,82,44,313,41,88,10,075,42*66
$GNGLL,3851.53760,N,07726.28662,W,165057.00,A,A*61
$GNRMC,165058.00,A,3851.53760,N,07726.28664,W,0.036,,210720,,,A*72
$GNVTG,,T,,M,0.036,N,0.067,K,A*39
$GNGGA,165058.00,3851.53760,N,07726.28664,W,1,12,0.65,95.9,M,-34.6,M,,*44
$GNGSA,A,3,03,04,06,12,28,02,17,19,24,,,,1.12,0.65,0.91*17
$GNGSA,A,3,67,65,82,79,66,88,81,,,,,,1.12,0.65,0.91*1A
$GPGSV,3,1,11,02,48,268,36,03,09,037,49,04,08,074,40,06,74,341,48*7B
$GPGSV,3,2,11,12,31,313,44,17,51,088,43,19,67,058,42,24,08,264,39*7B
$GPGSV,3,3,11,28,20,161,45,46,21,244,43,51,35,223,42*45
$GLGSV,2,1,08,65,14,029,33,66,40,095,41,67,19,151,42,73,01,343,*65
$GLGSV,2,2,08,79,30,221,40,81,49,035,39,82,44,314,41,88,10,075,43*60
$GNGLL,3851.53760,N,07726.28664,W,165058.00,A,A*68
$GNRMC,165059.00,A,3851.53760,N,07726.28667,W,0.002,,210720,,,A*77
$GNVTG,,T,,M,0.002,N,0.003,K,A*3C
$GNGGA,165059.00,3851.53760,N,07726.28667,W,1,12,0.65,95.8,M,-34.6,M,,*47
$GNGSA,A,3,03,04,06,12,28,02,17,19,24,,,,1.12,0.65,0.91*17
$GNGSA,A,3,67,65,82,79,66,88,81,,,,,,1.12,0.65,0.91*1A
$GPGSV,3,1,11,02,48,268,35,03,09,037,49,04,08,074,40,06,74,341,48*78
$GPGSV,3,2,11,12,31,313,44,17,51,088,43,19,67,058,42,24,08,264,39*7B
$GPGSV,3,3,11,28,20,161,44,46,21,244,43,51,35,223,42*44
$GLGSV,2,1,08,65,14,029,33,66,40,095,41,67,19,151,42,73,01,343,*65
$GLGSV,2,2,08,79,30,221,39,81,49,035,39,82,44,314,41,88,10,075,43*6E
$GNGLL,3851.53760,N,07726.28667,W,165059.00,A,A*6A
$GNRMC,165100.00,A,3851.53760,N,07726.28671,W,0.017,,210720,,,A*79
$GNVTG,,T,,M,0.017,N,0.031,K,A*39
$GNGGA,165100.00,3851.53760,N,07726.28671,W,1,12,0.65,95.8,M,-34.6,M,,*4D
$GNGSA,A,3,03,04,06,12,28,02,17,19,24,,,,1.12,0.65,0.91*17
$GNGSA,A,3,67,65,82,79,66,88,81,,,,,,1.12,0.65,0.91*1A
$GPGSV,3,1,11,02,48,268,35,03,09,037,49,04,08,074,40,06,74,341,48*78
$GPGSV,3,2,11,12,31,313,44,17,51,088,43,19,67,058,42,24,08,264,39*7B
$GPGSV,3,3,11,28,20,161,45,46,21,244,43,51,35,223,42*45
$GLGSV,2,1,08,65,14,029,32,66,40,095,41,67,19,151,42,73,01,343,*64
$GLGSV,2,2,08,79,30,221,39,81,49,035,37,82,44,314,39,88,10,075,43*6F
$GNGLL,3851.53760,N,07726.28671,W,165100.00,A,A*60
$GNRMC,165101.00,A,3851.53759,N,07726.28674,W,0.039,,210720,,,A*7B
$GNVTG,,T,,M,0.039,N,0.073,K,A*33
$GNGGA,165101.00,3851.53759,N,07726.28674,W,1,12,0.65,95.8,M,-34.6,M,,*43
$GNGSA,A,3,03,04,06,12,28,02,17,19,24,,,,1.12,0.65,0.91*17
$GNGSA,A,3,67,65,82,79,66,88,81,,,,,,1.12,0.65,0.91*1A
$GPGSV,3,1,11,02,48,268,34,03,08,037,49,04,08,074,40,06,74,341,48*78
$GPGSV,3,2,11,12,31,313,44,17,51,088,43,19,67,058,42,24,08,264,39*7B
$GPGSV,3,3,11,28,20,161,44,46,21,244,43,51,35,223,42*44
$GLGSV,2,1,08,65,14,029,32,66,40,095,41,67,19,151,42,73,01,343,*64
$GLGSV,2,2,08,79,30,221,39,81,49,035,38,82,44,314,40,88,10,075,42*6F
$GNGLL,3851.53759,N,07726.28674,W,165101.00,A,A*6E
$GNRMC,165102.00,A,3851.53758,N,07726.28677,W,0.036,,210720,,,A*75
$GNVTG,,T,,M,0.036,N,0.067,K,A*39
$GNGGA,165102.00,3851.53758,N,07726.28677,W,1,12,0.65,95.7,M,-34.6,M,,*4D
$GNGSA,A,3,03,04,06,12,28,02,17,19,24,,,,1.12,0.65,0.91*17
$GNGSA,A,3,67,65,82,79,66,88,81,,,,,,1.12,0.65,0.91*1A
$GPGSV,3,1,11,02,48,268,34,03,08,037,49,04,08,073,40,06,74,341,48*7F
$GPGSV,3,2,11,12,31,313,44,17,51,088,43,19,67,058,42,24,08,264,39*7B
$GPGSV,3,3,11,28,20,161,45,46,21,244,43,51,35,223,42*45
$GLGSV,2,1,08,65,14,029,32,66,40,095,40,67,19,151,42,73,01,343,*65
$GLGSV,2,2,08,79,30,221,39,81,49,035,38,82,44,314,41,88,10,075,42*6E
$GNGLL,3851.53758,N,07726.28677,W,165102.00,A,A*6F
$GNRMC,165103.00,A,3851.53758,N,07726.28681,W,0.018,,210720,,,A*71
$GNVTG,,T,,M,0.018,N,0.034,K,A*33
$GNGGA,165103.00,3851.53758,N,07726.28681,W,1,12,0.65,95.7,M,-34.6,M,,*45
$GNGSA,A,3,03,04,06,12,28,02,17,19,24,,,,1.12,0.65,0.91*17
$GNGSA,A,3,67,65,82,79,66,88,81,,,,,,1.12,0.65,0.91*1A
$GPGSV,3,1,11,02,48,268,33,03,08,037,49,04,08,073,41,06,74,342,48*7A
$GPGSV,3,2,11,12,31,313,44,17,51,088,43,19,67,058,41,24,08,264,39*78
$GPGSV,3,3,11,28,20,161,45,46,21,244,43,51,35,223,42*45
$GLGSV,2,1,08,65,14,029,31,66,40,095,40,67,19,151,42,73,01,343,*66
$GLGSV,2,2,08,79,30,221,38,81,49,035,38,82,44,314,41,88,10,075,42*6F
$GNGLL,3851.53758,N,07726.28681,W,165103.00,A,A*67
$GNRMC,165104.00,A,3851.53758,N,07726.28684,W,0.020,,210720,,,A*78
$GNVTG,,T,,M,0.020,N,0.036,K,A*3A
$GNGGA,165104.00,3851.53758,N,07726.28684,W,1,12,0.65,95.7,M,-34.6,M,,*47
$GNGSA,A,3,03,04,06,12,28,02,17,19,24,,,,1.12,0.65,0.91*17
$GNGSA,A,3,67,65,82,79,66,88,81,,,,,,1.12,0.65,0.91*1A
$GPGSV,3,1,11,02,48,268,32,03,08,037,49,04,08,073,41,06,74,342,48*7B
$GPGSV,3,2,11,12,31,313,44,17,51,088,43,19,67,058,41,24,08,264,40*76
$GPGSV,3,3,11,28,20,161,44,46,21,244,43,51,35,223,42*44
$GLGSV,2,1,08,65,14,029,30,66,40,095,40,67,19,151,42,73,01,343,20*65
$GLGSV,2,2,08,79,30,221,39,81,49,035,38,82,44,314,41,88,10,075,41*6D
$GNGLL,3851.53758,N,07726.28684,W,165104.00,A,A*65
$GNRMC,165105.00,A,3851.53758,N,07726.28688,W,0.017,,210720,,,A*71
$GNVTG,,T,,M,0.017,N,0.032,K,A*3A
$GNGGA,165105.00,3851.53758,N,07726.28688,W,1,12,0.65,95.7,M,-34.6,M,,*4A
$GNGSA,A,3,03,04,06,12,28,02,17,19,24,,,,1.12,0.65,0.91*17
$GNGSA,A,3,67,65,82,79,66,88,81,,,,,,1.12,0.65,0.91*1A
$GPGSV,3,1,11,02,48,268,33,03,08,037,49,04,08,073,41,06,74,342,48*7A
$GPGSV,3,2,11,12,31,313,44,17,51,088,44,19,67,058,40,24,08,264,40*70
$GPGSV,3,3,11,28,20,161,44,46,21,244,44,51,35,223,42*43
$GLGSV,2,1,08,65,14,029,30,66,40,095,40,67,19,151,43,73,01,343,19*6E
$GLGSV,2,2,08,79,30,221,38,81,49,035,38,82,44,314,41,88,10,075,40*6D
$GNGLL,3851.53758,N,07726.28688,W,165105.00,A,A*68
$GNRMC,165106.00,A,3851.53758,N,07726.28690,W,0.022,,210720,,,A*7D
$GNVTG,,T,,M,0.022,N,0.041,K,A*38
$GNGGA,165106.00,3851.53758,N,07726.28690,W,1,12,0.65,95.8,M,-34.6,M,,*4F
$GNGSA,A,3,03,04,06,12,28,02,17,19,24,,,,1.12,0.65,0.91*17
$GNGSA,A,3,67,65,82,79,66,88,81,,,,,,1.12,0.65,0.91*1A
$GPGSV,3,1,11,02,48,268,33,03,08,037,49,04,08,073,41,06,74,342,48*7A
$GPGSV,3,2,11,12,31,313,44,17,51,088,43,19,67,058,40,24,08,264,40*77
$GPGSV,3,3,11,28,20,161,44,46,21,244,43,51,35,223,42*44
$GLGSV,2,1,08,65,14,029,29,66,40,095,41,67,19,151,43,73,01,343,20*6D
$GLGSV,2,2,08,79,30,221,38,81,49,035,38,82,44,314,41,88,10,075,40*6D
$GNGLL,3851.53758,N,07726.28690,W,165106.00,A,A*62
$GNRMC,165107.00,A,3851.53759,N,07726.28692,W,0.021,,210720,,,A*7C
$GNVTG,,T,,M,0.021,N,0.039,K,A*34
$GNGGA,165107.00,3851.53759,N,07726.28692,W,1,12,0.65,95.8,M,-34.6,M,,*4D
$GNGSA,A,3,03,04,06,12,28,02,17,19,24,,,,1.12,0.65,0.91*17
$GNGSA,A,3,67,65,82,79,66,88,81,,,,,,1.12,0.65,0.91*1A
$GPGSV,3,1,11,02,48,268,33,03,08,037,49,04,08,073,40,06,74,342,48*7B
$GPGSV,3,2,11,12,31,313,44,17,51,088,43,19,67,059,40,24,08,264,40*76
$GPGSV,3,3,11,28,20,161,44,46,21,244,43,51,35,223,41*47
$GLGSV,2,1,08,65,14,029,29,66,40,095,41,67,19,151,43,73,01,343,19*67
$GLGSV,2,2,08,79,30,221,38,81,49,035,38,82,44,314,41,88,10,075,39*63
$GNGLL,3851.53759,N,07726.28692,W,165107.00,A,A*60
$GNRMC,165108.00,A,3851.53759,N,07726.28694,W,0.018,,210720,,,A*7F
$GNVTG,,T,,M,0.018,N,0.033,K,A*34
$GNGGA,165108.00,3851.53759,N,07726.28694,W,1,12,0.65,95.8,M,-34.6,M,,*44
$GNGSA,A,3,03,04,06,12,28,02,17,19,24,,,,1.12,0.65,0.91*17
$GNGSA,A,3,67,65,82,79,66,88,81,,,,,,1.12,0.65,0.91*1A
$GPGSV,3,1,11,02,48,268,34,03,08,037,49,04,08,073,41,06,74,342,48*7D
$GPGSV,3,2,11,12,31,313,44,17,51,088,43,19,67,059,40,24,07,264,40*79
$GPGSV,3,3,11,28,20,161,44,46,21,244,43,51,35,223,41*47
$GLGSV,2,1,08,65,14,029,28,66,40,095,41,67,19,151,43,73,01,343,20*6C
$GLGSV,2,2,08,79,30,221,39,81,49,035,38,82,44,314,41,88,10,075,39*62
$GNGLL,3851.53759,N,07726.28694,W,165108.00,A,A*69
$GNRMC,165109.00,A,3851.53759,N,07726.28695,W,0.016,,210720,,,A*71
$GNVTG,,T,,M,0.016,N,0.030,K,A*39
$GNGGA,165109.00,3851.53759,N,07726.28695,W,1,12,0.65,95.8,M,-34.6,M,,*44
$GNGSA,A,3,03,04,06,12,28,02,17,19,24,,,,1.11,0.65,0.91*14
$GNGSA,A,3,67,65,82,79,66,88,81,,,,,,1.11,0.65,0.91*19
$GPGSV,3,1,11,02,48,268,34,03,08,037,49,04,08,073,41,06,74,342,48*7D
$GPGSV,3,2,11,12,31,313,44,17,51,088,43,19,67,059,40,24,07,264,40*79
$GPGSV,3,3,11,28,20,161,44,46,21,244,43,51,35,223,41*47
$GLGSV,2,1,08,65,14,029,27,66,40,095,41,67,19,151,43,73,01,343,20*63
$GLGSV,2,2,08,79,30,221,39,81,49,035,38,82,44,314,41,88,10,075,39*62
$GNGLL,3851.53759,N,07726.28695,W,165109.00,A,A*69
$GNRMC,165110.00,A,3851.53759,N,07726.28695,W,0.012,,210720,,,A*7D
$GNVTG,,T,,M,0.012,N,0.022,K,A*3E
$GNGGA,165110.00,3851.53759,N,07726.28695,W,1,12,0.65,95.9,M,-34.6,M,,*4D
$GNGSA,A,3,03,04,06,12,28,02,17,19,24,,,,1.11,0.65,0.91*14
$GNGSA,A,3,67,65,82,79,66,88,81,,,,,,1.11,0.65,0.91*19
$GPGSV,3,1,11,02,48,268,35,03,08,037,49,04,08,073,41,06,74,342,48*7C
$GPGSV,3,2,11,12,31,313,44,17,51,088,44,19,67,059,41,24,07,264,40*7F
$GPGSV,3,3,11,28,20,161,43,46,21,244,43,51,35,223,41*40
$GLGSV,2,1,08,65,14,029,27,66,40,095,39,67,19,151,43,73,01,343,20*6C
$GLGSV,2,2,08,79,30,221,39,81,49,035,38,82,44,314,39,88,10,075,38*6C
$GNGLL,3851.53759,N,07726.28695,W,165110.00,A,A*61
$GNRMC,165111.00,A,3851.53759,N,07726.28695,W,0.026,,210720,,,A*7B
$GNVTG,,T,,M,0.026,N,0.048,K,A*35
$GNGGA,165111.00,3851.53759,N,07726.28695,W,1,12,0.65,95.9,M,-34.6,M,,*4C
$GNGSA,A,3,03,04,06,12,28,02,17,19,24,,,,1.11,0.65,0.91*14
$GNGSA,A,3,67,65,82,79,66,88,81,,,,,,1.11,0.65,0.91*19
$GPGSV,3,1,11,02,48,268,36,03,08,037,49,04,08,073,41,06,74,342,48*7F
$GPGSV,3,2,11,12,31,313,44,17,51,088,44,19,67,059,41,24,07,264,40*7F
$GPGSV,3,3,11,28,20,161,43,46,21,244,43,51,35,223,41*40
$GLGSV,2,1,08,65,14,029,27,66,40,095,40,67,19,151,43,73,01,343,20*62
$GLGSV,2,2,08,79,30,221,38,81,49,035,38,82,44,314,40,88,10,075,38*63
$GNGLL,3851.53759,N,07726.28695,W,165111.00,A,A*60
$GNRMC,165112.00,A,3851.53758,N,07726.28696,W,0.022,,210720,,,A*7E
$GNVTG,,T,,M,0.022,N,0.040,K,A*39
$GNGGA,165112.00,3851.53758,N,07726.28696,W,1,12,0.65,95.9,M,-34.6,M,,*4D
$GNGSA,A,3,03,04,06,12,28,02,17,19,24,,,,1.11,0.65,0.91*14
$GNGSA,A,3,67,65,82,79,66,88,81,,,,,,1.11,0.65,0.91*19
$GPGSV,3,1,11,02,48,268,36,03,08,037,49,04,08,073,41,06,74,342,48*7F
$GPGSV,3,2,11,12,31,313,44,17,51,088,44,19,67,059,41,24,07,264,40*7F
$GPGSV,3,3,11,28,20,161,43,46,21,244,43,51,35,223,41*40
$GLGSV,2,1,08,65,14,029,27,66,40,095,40,67,19,151,43,73,01,343,20*62
$GLGSV,2,2,08,79,30,221,39,81,49,035,38,82,44,314,40,88,10,075,38*62
$GNGLL,3851.53758,N,07726.28696,W,165112.00,A,A*61
$GNRMC,165113.00,A,3851.53757,N,07726.28697,W,0.024,,210720,,,A*77
$GNVTG,,T,,M,0.024,N,0.045,K,A*3A
$GNGGA,165113.00,3851.53757,N,07726.28697,W,1,12,0.65,95.9,M,-34.6,M,,*42
$GNGSA,A,3,03,04,06,12,28,02,17,19,24,,,,1.11,0.65,0.91*14
$GNGSA,A,3,67,65,82,79,66,88,81,,,,,,1.11,0.65,0.91*19
$GPGSV,3,1,11,02,48,268,36,03,08,037,49,04,08,073,41,06,74,342,48*7F
$GPGSV,3,2,11,12,31,313,44,17,51,088,44,19,67,059,42,24,07,264,40*7C
$GPGSV,3,3,11,28,20,161,43,46,21,244,43,51,35,223,41*40
$GLGSV,2,1,08,65,14,029,27,66,40,095,40,67,19,151,43,73,01,343,20*62
$GLGSV,2,2,08,79,30,221,39,81,49,035,38,82,44,314,40,88,10,075,38*62
$GNGLL,3851.53757,N,07726.28697,W,165113.00,A,A*6E
$GNRMC,165114.00,A,3851.53755,N,07726.28697,W,0.031,,210720,,,A*76
$GNVTG,,T,,M,0.031,N,0.058,K,A*32
$GNGGA,165114.00,3851.53755,N,07726.28697,W,1,12,0.65,95.9,M,-34.6,M,,*47
$GNGSA,A,3,03,04,06,12,28,02,17,19,24,,,,1.11,0.65,0.91*14
$GNGSA,A,3,67,65,82,79,66,88,81,,,,,,1.11,0.65,0.91*19
$GPGSV,3,1,11,02,48,268,36,03,08,037,49,04,08,073,41,06,74,342,47*70
$GPGSV,3,2,11,12,31,313,43,17,51,088,44,19,67,059,42,24,07,264,40*7B
$GPGSV,3,3,11,28,20,161,43,46,21,244,43,51,35,223,41*40
$GLGSV,2,1,08,65,14,029,27,66,40,095,40,67,19,151,43,73,01,343,19*68
$GLGSV,2,2,08,79,30,221,39,81,49,035,38,82,44,314,40,88,10,075,39*63
$GNGLL,3851.53755,N,07726.28697,W,165114.00,A,A*6B
$GNRMC,165115.00,A,3851.53752,N,07726.28698,W,0.016,,210720,,,A*7A
$GNVTG,,T,,M,0.016,N,0.030,K,A*39
$GNGGA,165115.00,3851.53752,N,07726.28698,W,1,12,0.65,95.8,M,-34.6,M,,*4F
$GNGSA,A,3,03,04,06,12,28,02,17,19,24,,,,1.11,0.65,0.91*14
$GNGSA,A,3,67,65,82,79,66,88,81,,,,,,1.11,0.65,0.91*19
$GPGSV,3,1,11,02,48,268,37,03,08,037,49,04,08,073,40,06,74,342,48*7F
$GPGSV,3,2,11,12,31,313,43,17,51,088,44,19,67,059,42,24,07,264,39*75
$GPGSV,3,3,11,28,20,161,43,46,21,244,43,51,35,223,41*40
$GLGSV,2,1,08,65,14,029,27,66,40,095,40,67,19,151,43,73,01,343,17*66
$GLGSV,2,2,08,79,30,221,39,81,49,035,39,82,44,314,40,88,10,075,39*62
$GNGLL,3851.53752,N,07726.28698,W,165115.00,A,A*62
$GNRMC,165116.00,A,3851.53749,N,07726.28697,W,0.020,,210720,,,A*79
$GNVTG,,T,,M,0.020,N,0.037,K,A*3B
$GNGGA,165116.00,3851.53749,N,07726.28697,W,1,12,0.65,95.8,M,-34.6,M,,*49
$GNGSA,A,3,03,04,06,12,28,02,17,19,24,,,,1.11,0.65,0.91*14
$GNGSA,A,3,67,65,82,79,66,88,81,,,,,,1.11,0.65,0.91*19
$GPGSV,3,1,11,02,48,268,37,03,08,037,49,04,08,073,40,06,74,342,48*7F
$GPGSV,3,2,11,12,31,313,44,17,51,088,44,19,67,059,42,24,07,264,39*72
$GPGSV,3,3,11,28,20,161,44,46,21,244,43,51,35,223,41*47
$GLGSV,2,1,08,65,14,029,27,66,40,095,40,67,19,151,43,73,01,343,16*67
$GLGSV,2,2,08,79,30,221,39,81,49,035,39,82,44,314,41,88,10,075,39*63
$GNGLL,3851.53749,N,07726.28697,W,165116.00,A,A*64
$GNRMC,165117.00,A,3851.53747,N,07726.28696,W,0.015,,210720,,,A*71
$GNVTG,,T,,M,0.015,N,0.029,K,A*32
$GNGGA,165117.00,3851.53747,N,07726.28696,W,1,12,0.65,95.8,M,-34.6,M,,*47
$GNGSA,A,3,03,04,06,12,28,02,17,19,24,,,,1.11,0.65,0.91*14
$GNGSA,A,3,67,65,82,79,66,88,81,,,,,,1.11,0.65,0.91*19
$GPGSV,3,1,11,02,48,268,37,03,08,037,49,04,08,073,40,06,74,342,47*70
$GPGSV,3,2,11,12,31,313,44,17,51,088,43,19,67,059,42,24,07,264,39*75
$GPGSV,3,3,11,28,20,161,43,46,21,244,43,51,35,223,41*40
$GLGSV,2,1,08,65,14,029,27,66,40,095,40,67,19,151,43,73,01,343,14*65
$GLGSV,2,2,08,79,30,221,39,81,49,035,38,82,44,314,41,88,10,075,39*62
$GNGLL,3851.53747,N,07726.28696,W,165117.00,A,A*6A
$GNRMC,165118.00,A,3851.53744,N,07726.28695,W,0.026,,210720,,,A*7E
$GNVTG,,T,,M,0.026,N,0.049,K,A*34
$GNGGA,165118.00,3851.53744,N,07726.28695,W,1,12,0.65,95.7,M,-34.6,M,,*47
$GNGSA,A,3,03,04,06,12,28,02,17,19,24,,,,1.11,0.65,0.91*14
$GNGSA,A,3,67,65,82,79,66,88,81,,,,,,1.11,0.65,0.91*19
$GPGSV,3,1,11,02,48,268,37,03,08,037,49,04,08,073,40,06,74,342,47*70
$GPGSV,3,2,11,12,31,313,44,17,51,088,44,19,67,059,42,24,07,264,38*73
$GPGSV,3,3,11,28,20,161,43,46,21,244,44,51,35,223,41*47
$GLGSV,2,1,08,65,14,029,27,66,40,095,41,67,19,151,44,73,01,343,10*67
$GLGSV,2,2,08,79,30,221,39,81,49,035,37,82,44,314,41,88,10,075,39*6D
$GNGLL,3851.53744,N,07726.28695,W,165118.00,A,A*65
$GNRMC,165119.00,A,3851.53742,N,07726.28695,W,0.009,,210720,,,A*74
$GNVTG,,T,,M,0.009,N,0.017,K,A*32
$GNGGA,165119.00,3851.53742,N,07726.28695,W,1,12,0.65,95.7,M,-34.6,M,,*40
$GNGSA,A,3,03,04,06,12,28,02,17,19,24,,,,1.11,0.65,0.91*14
$GNGSA,A,3,67,65,82,79,66,88,81,,,,,,1.11,0.65,0.91*19
$GPGSV,3,1,11,02,48,268,37,03,08,037,49,04,08,073,41,06,74,342,47*71
$GPGSV,3,2,11,12,31,313,44,17,51,088,44,19,67,059,42,24,07,264,38*73
$GPGSV,3,3,11,28,20,161,43,46,21,244,44,51,35,223,41*47
$GLGSV,2,1,08,65,14,029,27,66,40,095,40,67,19,151,44,73,01,343,*67
$GLGSV,2,2,08,79,30,221,39,81,49,035,37,82,44,314,41,88,10,075,39*6D
$GNGLL,3851.53742,N,07726.28695,W,165119.00,A,A*62
$GNRMC,165120.00,A,3851.53742,N,07726.28694,W,0.006,,210720,,,D*75
$GNVTG,,T,,M,0.006,N,0.011,K,D*3E
$GNGGA,165120.00,3851.53742,N,07726.28694,W,2,12,0.65,95.8,M,-34.6,M,,0000*47
$GNGSA,A,3,03,04,06,12,28,02,17,19,24,,,,1.11,0.65,0.91*14
$GNGSA,A,3,67,65,82,79,66,88,81,,,,,,1.11,0.65,0.91*19
$GPGSV,3,1,11,02,48,268,36,03,08,037,49,04,08,073,41,06,74,342,47*70
$GPGSV,3,2,11,12,31,313,44,17,51,088,44,19,67,059,42,24,07,264,38*73
$GPGSV,3,3,11,28,20,161,43,46,21,244,44,51,35,223,41*47
$GLGSV,2,1,08,65,14,029,26,66,40,095,40,67,19,151,43,73,01,343,*61
$GLGSV,2,2,08,79,30,221,38,81,49,035,37,82,44,314,41,88,10,075,38*6D
$GNGLL,3851.53742,N,07726.28694,W,165120.00,A,D*6C
$GNRMC,165121.00,A,3851.53741,N,07726.28694,W,0.018,,210720,,,D*78
$GNVTG,,T,,M,0.018,N,0.034,K,D*36
$GNGGA,165121.00,3851.53741,N,07726.28694,W,2,12,0.65,95.8,M,-34.6,M,,0000*45
$GNGSA,A,3,03,04,06,12,28,02,17,19,24,,,,1.11,0.65,0.91*14
$GNGSA,A,3,67,65,82,79,66,88,81,,,,,,1.11,0.65,0.91*19
$GPGSV,3,1,11,02,48,268,36,03,08,037,49,04,08,073,42,06,74,342,48*7C
$GPGSV,3,2,11,12,31,313,44,17,51,088,43,19,67,059,41,24,07,264,38*77
$GPGSV,3,3,11,28,20,161,43,46,21,244,43,51,35,223,41*40
$GLGSV,2,1,08,65,14,029,26,66,40,095,40,67,19,151,43,73,01,343,*61
$GLGSV,2,2,08,79,30,221,38,81,49,035,39,82,44,314,41,88,10,075,37*6C
$GNGLL,3851.53741,N,07726.28694,W,165121.00,A,D*6E
$GNRMC,165122.00,A,3851.53739,N,07726.28696,W,0.004,,210720,,,D*7B
$GNVTG,,T,,M,0.004,N,0.008,K,D*34
$GNGGA,165122.00,3851.53739,N,07726.28696,W,2,12,0.65,95.7,M,-34.6,M,,0000*44
$GNGSA,A,3,03,04,06,12,28,02,17,19,24,,,,1.11,0.65,0.91*14
$GNGSA,A,3,67,65,82,79,66,88,81,,,,,,1.11,0.65,0.91*19
$GPGSV,3,1,11,02,48,268,34,03,08,037,49,04,08,073,42,06,74,342,48*7E
$GPGSV,3,2,11,12,31,313,44,17,51,088,43,19,67,059,41,24,07,264,38*77
$GPGSV,3,3,11,28,20,161,43,46,21,244,43,51,35,223,41*40
$GLGSV,2,1,08,65,14,029,27,66,40,095,40,67,19,151,43,73,01,343,*60
$GLGSV,2,2,08,79,30,221,39,81,49,035,39,82,44,314,41,88,10,075,36*6C
$GNGLL,3851.53739,N,07726.28696,W,165122.00,A,D*60
$GNRMC,165123.00,A,3851.53738,N,07726.28698,W,0.028,,210720,,,D*7B
$GNVTG,,T,,M,0.028,N,0.052,K,D*35
$GNGGA,165123.00,3851.53738,N,07726.28698,W,2,12,0.65,95.7,M,-34.6,M,,0000*4A
$GNGSA,A,3,03,04,06,12,28,02,17,19,24,,,,1.11,0.65,0.91*14
$GNGSA,A,3,67,65,82,79,66,88,81,,,,,,1.11,0.65,0.91*19
$GPGSV,3,1,11,02,48,268,32,03,08,037,49,04,08,073,42,06,74,342,48*78
$GPGSV,3,2,11,12,31,313,44,17,51,088,43,19,67,059,41,24,07,264,38*77
$GPGSV,3,3,11,28,20,161,43,46,21,244,43,51,35,223,41*40
$GLGSV,2,1,08,65,13,029,26,66,40,095,40,67,19,151,43,73,01,343,*66
$GLGSV,2,2,08,79,30,221,39,81,49,035,40,82,44,314,40,88,10,075,35*60
$GNGLL,3851.53738,N,07726.28698,W,165123.00,A,D*6E
$GNRMC,165124.00,A,3851.53737,N,07726.28700,W,0.016,,210720,,,D*7E
$GNVTG,,T,,M,0.016,N,0.030,K,D*3C
$GNGGA,165124.00,3851.53737,N,07726.28700,W,2,12,0.65,95.7,M,-34.6,M,,0000*42
$GNGSA,A,3,03,04,06,12,28,02,17,19,24,,,,1.11,0.65,0.91*14
$GNGSA,A,3,67,65,82,79,66,88,81,,,,,,1.11,0.65,0.91*19
$GPGSV,3,1,11,02,48,268,31,03,08,037,49,04,08,073,42,06,74,342,48*7B
$GPGSV,3,2,11,12,31,313,44,17,51,088,43,19,67,059,40,24,07,264,38*76
$GPGSV,3,3,11,28,20,161,43,46,21,244,43,51,35,223,41*40
$GLGSV,2,1,08,65,13,029,26,66,40,094,39,67,19,151,43,73,01,343,*69
$GLGSV,2,2,08,79,30,221,40,81,49,035,40,82,44,314,40,88,10,075,35*6E
$GNGLL,3851.53737,N,07726.28700,W,165124.00,A,D*66
$GNRMC,165125.00,A,3851.53735,N,07726.28702,W,0.015,,210720,,,D*7C
$GNVTG,,T,,M,0.015,N,0.027,K,D*39
$GNGGA,165125.00,3851.53735,N,07726.28702,W,2,12,0.65,95.6,M,-34.6,M,,0000*42
$GNGSA,A,3,03,04,06,12,28,02,17,19,24,,,,1.11,0.65,0.91*14
$GNGSA,A,3,67,65,82,79,66,88,81,,,,,,1.11,0.65,0.91*19
$GPGSV,3,1,11,02,48,268,30,03,08,037,49,04,08,073,42,06,74,342,48*7A
$GPGSV,3,2,11,12,31,313,44,17,51,088,43,19,67,059,40,24,07,264,38*76
$GPGSV,3,3,11,28,20,161,43,46,21,244,43,51,35,223,41*40
$GLGSV,2,1,08,65,13,029,26,66,40,094,40,67,20,151,43,73,01,343,*6D
$GLGSV,2,2,08,79,30,221,40,81,49,035,41,82,44,314,40,88,10,075,34*6E
